longitude,latitude,name,address,city,state,zip,phone
-81.756906,24.571897,KEY WEST-ROOSVLT,3704 N Roosevelt Blvd,Key West,FL,33040,(305) 293-7606
-81.073326,24.716418,MARATHON,5595 Overseas Hwy,Marathon,FL,33050,(305) 743-0707
-80.522609,25.004612,TAVERNIER,91400 Overseas Hwy,Tavernier,FL,33070,(305) 852-2463
-80.427325,25.108703,KEY LARGO,101000 Overseas Hwy,Key Largo,FL,33037,(305) 451-5861
-80.474594,25.442581,FLORIDA CITY,425 Se 1st Ave,Homestead,FL,33034,(305) 248-9285
-80.434625,25.477004,"HOMESTEAD, CAMPB",2880 Ne 8th St,Homestead,FL,33033,(305) 242-9774
-80.473083,25.457704,FLORIDA CITY W*M,33501 S Dixie Hwy # 2727,Homestead,FL,33034,(305) 247-2979
-80.411901,25.499222,NORTH HOMESTEAD,13690 Biscayne Dr,Homestead,FL,33033,(305) 247-2704
-97.490927,25.901047,BROWNSVL/INTL,1104 International Blvd,Brownsville,TX,78520-6844,(956) 544-8406
-97.544717,25.944937,MILITARY RD,2025 U.S. Hwy 281,Brownsville,TX,78520,(956) 709-2013
-97.511905,25.926565,"BROWNSVILLE, BOC",1609 Central Blvd,Brownsville,TX,78520,(956) 504-9442
-97.491405,25.921255,BRWNSVL-S EXPRSY,101 S Expressway,Brownsville,TX,78520-8049,(956) 541-1031
-97.447317,25.893775,BROWNSVILLE,4690 Southmost Rd,Brownsville,TX,78520,(956) 443-4781
-97.46697,25.919916,BROWNSVLE/14TH,4484 E 14th St,Brownsville,TX,78521-3240,(956) 542-5088
-97.504128,25.948421,BROWNSVLE/H-77,2260 N Expressway,Brownsville,TX,78521,(956) 544-4800
-97.513509,25.967408,MORRISON @ HWY 7,4315 N Expressway 77,Brownsville,TX,78526,(956) 350-2527
-97.486278,25.952244,"BROWNSVILLE, FM",117 America Drive,Brownsville,TX,78526,(956) 554-9821
-97.483454,25.983416,BROWNSVILLE-PARE,5500 Paredes Line Rd,Brownsville,TX,78526,(956) 427-5848
-97.426725,25.943663,HWY 48 & FM 802,7400 Padre Island Hwy,Brownsville,TX,78521,(956) 831-4505
-97.475018,26.071901,LOS FRESNOS,115 Ocean Boulevard,Los Fresnos,TX,78566,(956) 233-1711
-97.63656,26.125974,SAN BENITO-US 83,821 S Sam Houston,San Benito,TX,78586-3062,(956) 399-4033
-97.164315,26.091091,SO. PAD. IS/PADR,908 S Padre Blvd,South Padre Island,TX,78597,(956) 761-4999
-81.727494,25.952874,MARCO ISL.,899 N Collier Blvd,Marco Island,FL,34145,(239) 642-8899
-81.70224,26.066057,FREEDOM SQ,12615 Tamiami Trl E,Naples,FL,34113,(239) 732-0117
-80.447512,25.712198,MILLER CROSSINGS,5700 Sw 157th Ave,Miami,FL,33193,(305) 383-1447
-80.446643,25.684779,KENDALL/SW 157,15715 Sw 88th St,Miami,FL,33196,(305) 387-4249
-80.443349,25.670286,MIAMI- S. W. 104,15295 Sw 104th St,Miami,FL,33196,(305) 388-0560
-80.431431,25.729033,BIRD & 147TH,14699 Sw 42nd St,Miami,FL,33175,(305) 226-2422
-80.43208,25.760479,SW 8TH & SW 147T,14670 Sw 8th St,Miami,FL,33184,(305) 228-4343
-80.415976,25.714164,MILLER ROAD,13702 Sw 56th St,Miami,FL,33175,(305) 387-1356
-80.415527,25.625854,COUNTRY WALK,13708 Sw 152nd St,Miami,FL,33177,(305) 232-2860
-80.407332,25.664239,SOUTH KENDALL,11115 Sw 132nd Ave,Miami,FL,33186,(305) 387-7007
-80.403456,25.686063,KENDALL-LAKES,13101 Sw 88th St,Miami,FL,33186,(305) 386-3998
-80.246245,25.736552,GROVE,3200 S Dixie Hwy,Miami,FL,33133,(786) 489-1703
-80.248185,25.749746,CORAL WAY,3280 Coral Way,Miami,FL,33145,(305) 444-5466
-80.198866,25.766632,SW 8TH & 3RD AVE,299 Sw 8th St,Miami,FL,33130,(305) 856-6770
-80.218683,25.765501,LITTLE HAVANA,1400 Sw 8th St,Miami,FL,33135,(305) 285-0974
-80.274593,25.715959,CORAL GABLES,1148 S Dixie Hwy,Coral Gables,FL,33146,(305) 666-9919
-80.211831,25.773374,FLAGLER,1016 W Flagler St,Miami,FL,33130,(305) 545-7788
-80.241236,25.764843,MIAMI-2900 SW 8T,2940 Sw 8th St,Miami,FL,33135,(305) 541-4768
-80.190172,25.778003,DOWNTOWN RELO,345 Ne 2nd Ave,Miami,FL,33132,(305) 371-8161
-80.292742,25.701277,UNIVERSITY,6150 S Dixie Hwy,Miami,FL,33143-5003,(305) 661-7131
-80.26286,25.763235,MIAMI-LEJEUNE,4180 Sw 9th St,Miami,FL,33134,(305) 443-9366
-80.256514,25.779265,DOUGLAS,3747 Nw 7th St,Miami,FL,33126,(305) 646-0423
-80.303266,25.733056,CROSSROADS,6700 Bird Rd,Miami,FL,33155,(305) 667-3551
-80.140924,25.789141,ALTON RD & 16TH,1601 Alton Rd,Miami Beach,FL,33139,(305) 672-7055
-80.132081,25.790433,MIAMI BCH/LINCLN,1650 Washington Ave,Miami Beach,FL,33139,(305) 672-8031
-80.286927,25.777626,7 & 57,5650 Nw 7th Ave,Miami,FL,33127,(305) 262-3961
-80.189163,25.809965,MIAMI-BISCAYNE,3501 Biscayne Blvd,Miami,FL,33137,(305) 573-6064
-80.232268,25.809094,36TH/22ND,2200 Nw 36th St,Miami,FL,33142,(305) 633-1385
-80.323661,25.733566,TROPICAL PARK,7901 Bird Rd,Miami,FL,33155,(305) 264-1244
-80.313,25.763141,MIAMI-SW 8TH,7215 Sw 8th St,Miami,FL,33144,(305) 261-3441
-80.329566,25.652864,SUNILAND,12647 S Dixie Hwy,Pinecrest,FL,33156,(305) 233-0058
-80.27729,25.808362,MIAMI SPRGS,4999 Nw 36th St,Miami Springs,FL,33166,(305) 885-7698
-80.336076,25.748622,WESTCHESTER,2300 Sw 87th Ave,Miami,FL,33165,(305) 220-0024
-80.345713,25.716621,MILLER & 93,9341 Sw 56th St,Miami,FL,33165,(305) 270-1943
-80.206753,25.83273,I-95 & 62ND,599 Nw 62nd St,Miami,FL,33150,(305) 751-5636
-80.326046,25.770176,MIDWAY,7993 W Flagler St,Miami,FL,33144,(305) 265-0177
-80.349437,25.702003,SUNSET,9681 Sw 72nd St,Miami,FL,33173,(305) 598-4933
-80.336198,25.636053,KING'S BAY,14401 S Dixie Hwy,Miami,FL,33176,(305) 964-5318
-80.271915,25.822662,HIALEAH-HIALEAH,460 Hialeah Dr,Hialeah,FL,33010,(305) 884-8700
-80.261126,25.831946,FLAMINGO,1021 E 10th Ave,Hialeah,FL,33010,(305) 888-5491
-80.332566,25.783395,TRADEWINDS,8403 Nw 12th St,Doral,FL,33126,(305) 477-3163
-80.185108,25.849872,8116 BISCAYNE,8116 Biscayne Blvd,Miami,FL,33138,(305) 756-0400
-80.242229,25.8476,MIAMI/BOX 470097,8050 Nw 27th Ave,Miami,FL,33147,(305) 836-4792
-80.354963,25.761217,FIU,9850 Sw 8th St,Miami,FL,33174,(305) 223-8687
-80.31739,25.809995,MIAMI-36TH/PALM,7405 Nw 36th St,Miami,FL,33166,(305) 593-0376
-80.336426,25.796169,87TH AVE. & 25TH,2405 Nw 87th Ave,Doral,FL,33172,(305) 468-1822
-80.210077,25.859774,NW 7TH AVE,9250 Nw 7th Ave,Miami,FL,33150,(305) 759-1042
-80.378134,25.732613,MIAMI-BIRD RD,11301 Sw 40th St,Miami,FL,33165,(305) 223-0179
-80.366668,25.768213,SWEETWATER,10530 W Flagler St,Sweetwater,FL,33174-1631,(305) 552-8401
-80.382764,25.685984,SUMMIT,11500 N Kendall Dr,Miami,FL,33176,(305) 595-2347
-80.288598,25.847729,HIALEAH-PARK,330 W 29th St,Hialeah,FL,33012-5708,(305) 888-3497
-80.326091,25.825438,MIAMI-57/79,5700 Nw 79th Ave,Doral,FL,33166,(305) 599-2660
-80.352328,25.600886,PERRINE,18295 S Dixie Hwy,Miami,FL,33157,(305) 238-7129
-80.383886,25.65558,SNAPPER CREEK,12198 Sw 117th Ave,Miami,FL,33186,(786) 562-8426
-80.336189,25.578119,OLD CUTLER/FRANJ,20315 Old Cutler Rd,Cutler Bay,FL,33189,(305) 235-5600
-80.376025,25.627942,CORAL REEF,11207 Sw 152nd St,Miami,FL,33157-1101,(305) 255-3594
-80.27502,25.861802,E. 4TH AVE,4300 E 4th Ave,Hialeah,FL,33013,(305) 823-2559
-80.242256,25.872286,27TH AVE,10775 Nw 27th Ave,Miami,FL,33167,(305) 681-5444
-80.351324,25.812111,DORAL,9501 Nw 41st St,Doral,FL,33178,(305) 594-7530
-80.39174,25.744692,WEST CORAL WAY,12185 Sw 26th St,Miami,FL,33175,(305) 229-2005
-80.390492,25.76053,TAMIAMI,11990 Sw 8th St,Miami,FL,33184,(305) 221-8542
-80.209982,25.883409,119TH & 7TH,11899 Nw 7th Ave,Miami,FL,33168,(305) 953-0612
-80.319695,25.852897,OKEE & PALMETTO,3350 W 18th Ave,Hialeah,FL,33012,(305) 825-0104
-80.314373,25.859504,W 16TH AVE,4185 W 16th Ave,Hialeah,FL,33012,(305) 826-3666
-80.186093,25.889932,125TH & 6TH,610 Ne 125th St,North Miami,FL,33161,(305) 899-2882
-80.3052,25.866973,WESTLAND,1101 W 49th St,Hialeah,FL,33012,(305) 821-5521
-80.36734,25.579132,CARIBBEAN,10855 Caribbean Blvd,Cutler Ridge,FL,33157,(305) 254-3487
-80.379254,25.592569,QUAIL ROOST,11575 Quail Roost Road,South Miami Heights,FL,33157,(502) 856-8913
-80.381169,25.811162,MIAMI,11390 Nw 41st St,Doral,FL,33178,(305) 471-6809
-80.162258,25.895759,130TH & BISC,13000 Biscayne Blvd,North Miami,FL,33181,(305) 899-9578
-80.231708,25.897805,OPA LOCKA,1930 Opa Locka Blvd,Miami,FL,33167,(305) 685-8855
-80.291105,25.887343,RED ROAD,7155 W 4th Ave,Hialeah,FL,33014-5373,(305) 557-1190
-80.36989,25.841864,NORTH DORAL,7570 Nw 104th Ave,Doral,FL,33178,(786) 725-5752
-80.316938,25.883691,GRATIGNY,1660 W 68th St,Hialeah,FL,33012,(305) 556-4891
-80.330895,25.876749,WEST HIALEAH,5995 W 24th Ave,Hialeah,FL,33016-4429,(305) 828-2264
-80.212162,25.912657,151 ST.,15096 Nw 7th Ave,Miami,FL,33168,(305) 681-3452
-80.371613,25.550276,SIVLER PALMS,23351 Sw 112th Ave,Homestead,FL,33032,(305) 258-7837
-80.414039,25.598176,EUREKA & 137TH,18340 Sw 137th Ave,Miami,FL,33177,(305) 235-5573
-80.195929,25.927854,MIAMI-200 167TH,200 Ne 167th St,Miami,FL,33162,(305) 940-2092
-80.155511,25.926693,163RD AMOCO,2201 Ne 163rd St,North Miami Beach,FL,33160,(305) 948-9081
-80.319604,25.910885,MIAMI LAKES,7435 Miami Lakes Dr,Miami Lakes,FL,33014,(305) 824-0800
-80.350484,25.896887,HIALEAH GARDENS,3355 W 80th St,Hialeah,FL,33016,(305) 827-0049
-80.245681,25.940175,UNITY,18250 Nw 27th Ave,Carol City,FL,33056-3545,(305) 624-7010
-80.308507,25.925483,LUDLUM ROAD,16701 Nw 67th Ave,Hialeah,FL,33015,(305) 822-6232
-80.163891,25.945026,SKYLAKE,18350 Ne 18th Rd,Miami,FL,33179,(305) 940-0454
-80.27658,25.939415,CAROL CITY,4686 Nw 183rd St,Miami Gardens,FL,33055,(305) 621-2323
-80.294228,25.935346,GARDENS ROAD,17850 Nw 57th Ave,Hialeah,FL,33015,(305) 821-7727
-80.121811,25.940145,SUNNY ISLES,17730 Collins Ave,Sunny Isles Beach,FL,33160,(305) 937-4944
-80.205359,25.958969,US 441,20101 Nw 2nd Ave,Miami,FL,33169,(305) 652-5933
-80.426093,25.519399,NARANJA,26601 S Dixie Hwy,Homestead,FL,33032,(305) 258-0341
-80.340583,25.942678,MIA GDNS,8505 Nw 186th St,Hialeah,FL,33015,(305) 829-5113
-80.247605,25.979326,MIRAMAR II,3306 S University Dr,Miramar,FL,33025-3018,(954) 436-1872
-80.21113,25.984119,MIRAMAR I,6204 Miramar Pkwy,Miramar,FL,33023-3942,(954) 966-6118
-80.160216,25.984582,"HALLANDALE, BEAC",835 W Hallandale Beach Blvd,Hallandale,FL,33009,(954) 457-7415
-80.142841,25.987095,HALLANDALE,111 N Federal Hwy,Hallandale,FL,33009,(954) 456-0451
-80.221631,25.99491,PEMBROKE RD,6700 Pembroke Rd,Pembroke Pines,FL,33023,(954) 654-1063
-80.278405,25.987747,MIRABELLA,2351 Palm Ave,Miramar,FL,33025,(954) 442-6033
-80.336621,25.979212,MIRAMAR PKWY & I,14301 Miramar Pkwy,Miramar,FL,33027,(954) 447-6337
-80.204989,26.010492,HOLLYWOOD-BLVD,5835 Hollywood Blvd,Hollywood,FL,33021,(954) 981-4121
-80.172951,26.011253,HWD&ENTRADA,3247 Hollywood Blvd,Hollywood,FL,33021,(954) 981-8884
-99.011368,26.402285,"ROMA, HWY 83/OLI",104 E Grant Street,Roma,TX,78584,(956) 849-1045
-98.859534,26.371051,RIO GRANDE 83,2577 W Us Hwy 83,Rio Grande City,TX,78582,(956) 646-1359
-98.798329,26.370392,RIO GRANDE/H-83,4290 E Expy 83,Rio Grande City,TX,78582,(956) 487-8214
-98.442757,26.246687,"PENITAS, HWY 83",1703 EXPRESSWAY 83 (Walmart),Penitas,TX,78576,(956) 583-4994
-98.314087,26.288633,ALTON,217 N Alton,Alton,TX,78573,(956) 585-6237
-98.475368,26.248177,"LA JOYA, HWY 83",401 E Expressway 83,La Joya,TX,78560,(956) 580-0339
-98.315599,26.257531,PALMHURST,224 East Mile 3 Road,Palmhurst,TX,78573,(956) 581-0105
-98.324314,26.201453,MISSION-US 83,303 E Expy 83,Mission,TX,78572,(956) 581-1144
-98.289113,26.194476,CHEV-EXP 83-SHAR,804 S Shary Rd,Mission,TX,78572,(956) 583-2790
-98.259821,26.220043,MCALLEN PE,3700 Pecan Boulevard,Mcallen,TX,78502,(956) 630-5711
-98.24648,26.240568,NOLANA @ 29TH,2801 Nolana Ave,Mcallen,TX,78504,(956) 688-6236
-98.218203,26.268868,TENTH/TRENTON,7320 N 10th,Mcallen,TX,78504,(956) 972-1476
-98.225167,26.22921,MCALLEN-10TH ST.,2808 N 10th St,Mcallen,TX,78501,(956) 687-5898
-98.232393,26.186557,MCALLEN-SOUTH 10,1901 S 10th St,Mcallen,TX,78503,(956) 687-7707
-98.18585,26.304312,UNIVERSITY DR.,2120 W University Dr,Edinburg,TX,78539,(956) 316-3333
-98.205812,26.199642,83 AT JACKSON,1217 E Hwy 83,Mcallen,TX,78501,(956) 994-8911
-98.179535,26.233966,PHARR,104 W Nolana Loop,Pharr,TX,78577,(956) 783-2512
-98.168213,26.26189,401 E TRENTON RD,401 E Trenton,Edinburg,TX,78539,(956) 292-0161
-98.157317,26.33685,MONTE CHRISTO,202 W Monte Cristo Rd,Edinburg,TX,78541,(956) 383-0698
-98.189874,26.180673,RIDGE   CA,301 W Ridge Rd,Pharr,TX,78577,(956) 783-6236
-98.146131,26.299655,1605 E  UN,1605 E University Dr,Edinburg,TX,78539,(956) 387-0516
-98.166789,26.191385,83-I SAN JUAN,824 W Business 83,San Juan,TX,78589,(956) 702-5299
-98.148077,26.229672,LONGORIA SANJUAN,3701 N Raul Longoria Rd,San Juan,TX,78589,(956) 855-6960
-98.216356,26.124731,JACKSON @ DICKER,7501 S Jackson Rd,Pharr,TX,78577,(956) 715-8845
-98.121404,26.192024,ALAMO/US 83,1018 Frontage Rd,Alamo,TX,78516,(956) 283-1130
-98.126454,26.171757,ALAMO SOUTH,1119 W Ridge Road,Alamo,TX,78516,(956) 974-1106
-98.040966,26.178912,DONNA,602 N Salinas Blvd,Donna,TX,78537,(956) 461-3388
-97.992807,26.293112,"ELSA, 107 & 88",112 E Edinburg Ave,Elsa,TX,78543,(956) 262-3226
-97.99137,26.172143,WESLACO-TEXAS BL,1025 N Texas,Weslaco,TX,78596-4510,(956) 968-6554
-97.992515,26.14123,WESLACO SOUTH,200 W. 18th St.,Weslaco,TX,78596,(956) 877-3062
-97.958266,26.185155,WESLACO,2510 N. International Blvd.,Weslaco,TX,78599,(956) 855-7947
-97.957381,26.153181,WESLACO,3318 E Bus Hwy 83,Weslaco,TX,78596,(956) 514-2454
-97.758364,26.211609,"HARLINGEN, TX",23994 Stuart Place Rd,Harlingen,TX,78552,(956) 807-1133
-97.679922,26.198574,HARLNGN-N 77 SSS,602 N Sunshine Strip,Harlingen,TX,78550-8846,(956) 421-2207
-97.72039,26.181292,DIXIELAND/LINCOL,2305 W Lincoln,Harlingen,TX,78550,(956) 412-9292
-97.6729,26.171918,"HARLNGN,77&EDCAR",2020 S Sunshine Strip,Harlingen,TX,78550,(956) 428-7997
-97.636999,26.146543,SUNSHINE S,1144 Business Hwy 77,San Benito,TX,78586,(956) 399-6845
-97.822997,26.16476,LA FERIA,204 E Expressway 83,La Feria,TX,78559,(956) 797-1461
-97.768295,26.482453,RAYMONDVILLE,1105 E Hwy 186,Raymondville,TX,78580-2741,(956) 689-5546
-97.91371,26.15302,MERCEDES,216 N Texas Ave,Mercedes,TX,78570,(956) 294-1218
-82.007088,26.562235,CHIQUITA C,1604 W Cape Coral Pky,Cape Coral,FL,33914,(239) 945-7377
-81.943861,26.494559,SUMMERLIN,18500 Summerlin Rd,Fort Myers,FL,33908,(239) 245-8996
-81.949204,26.562311,CAPE CORAL,1222 Cape Coral Pky,Cape Coral,FL,33904,(239) 549-2556
-82.036307,26.638105,PINE ISLAN,2925 Sw Pine Island Rd,Cape Coral,FL,33991,(239) 282-9617
-81.974799,26.60732,CAPE CORAL,2404 Santa Barbara Blvd,Cape Coral,FL,33914,(239) 573-0800
-81.903654,26.556032,COLLEGE PA,8961 College Pky,Fort Myers,FL,33919,(239) 482-2930
-81.804982,26.327504,BONITA SPR,28215 Tamiami Trl,Bonita Springs,FL,34134,(239) 947-3300
-81.870596,26.525556,SIX MILE A,14985 S Tamiami Trl,Fort Myers,FL,33912,(239) 437-4668
-81.802252,26.273293,NAPLES PK,11141 N Tamiami Trail,Naples,FL,34110,(239) 597-3489
-81.595329,26.286203,ORANGETREE,13811 Immokalee Rd,Naples,FL,34120,(305) 509-5793
-81.691117,26.272589,PEBBLEBROO,15291 Collier Blvd,Naples,FL,34119,(239) 304-1530
-81.746458,26.273677,THE STRAND,5616 Tavilla Circle,Naples,FL,34110,(239) 593-6055
-81.687666,26.190825,GOLDEN GAT,12055 Collier Blvd,Naples,FL,34116,(239) 455-4544
-81.752986,26.332049,BONITA SPR,27996 Oakland Dr,Bonita Springs,FL,34135,(239) 498-8838
-81.730039,26.212114,PN RDG OIL,6065 Pine Ridge Rd,Naples,FL,34119,(239) 352-2009
-81.688179,26.155437,DAVIS BLVD.,8875 Davis Blvd,Naples,FL,34104,(239) 455-7745
-81.769094,26.213836,RIDGEPORT,5465 N Airport Rd,Naples,FL,34109,(239) 566-2004
-81.433256,26.4254,SR 29   IM,420 N 15th St,Immokalee,FL,34142,(239) 657-5255
-81.770409,26.437543,I 75 CORKS,20310 Grand Oaks Shoppes Blvd,Estero,FL,33928,(239) 947-6511
-81.800778,26.197894,NAPLES NORTH,4245 N Tamiami Trl,Naples,FL,34103-3104,(239) 262-2243
-81.81139,26.414223,41 AND VIA,22770 Via Villagio,Estero,FL,33928,(239) 676-7018
-81.771608,26.130056,NAPLES EAS,2886 E Tamiami Trl,Naples,FL,34112,(239) 774-3931
-81.784863,26.485232,ESTERO  AL,17800 Ben Hill Griffin Pky,Fort Myers,FL,33913,(239) 337-9425
-81.800053,26.493702,ALICO & 3 OAKS,16940 Vintage Commerce Blvd,Fort Myers,FL,33912,(239) 321-5107
-81.837313,26.477951,SAN CARLOS,7105 Constitution Blvd,Fort Myers,FL,33912,(239) 267-7070
-81.800684,26.546508,I-75/DANIELS,13600 Indian Paint Ln,Fort Myers,FL,33912,(239) 768-1030
-81.650474,26.60687,LEHIGH,1245 Home Stead Road North,Lehigh Acres,FL,33936,(239) 369-4393
-81.769534,26.618207,LEE BLVD,11041 Colonial Blvd,Fort Myers,FL,33913,(239) 561-0170
-81.872698,26.563788,S  CLEVELA,12290 S Clevelnd Ave,Fort Myers,FL,33907,(239) 936-5494
-81.810504,26.610173,"FT.MYERS, SIX-MI",8177 Dani Dr,Fort Myers,FL,33966,(239) 931-0277
-81.852427,26.598123,METRO,2955 Colonial Blvd,Fort Myers,FL,33912,(239) 936-0400
-81.884479,26.596301,COLONIAL S,1530 Colonial Blvd,Fort Myers,FL,33919,(239) 936-1424
-81.871417,26.609511,CLEVELAND AVE,3645 Cleveland Ave,Fort Myers,FL,33901,(239) 208-2818
-81.826873,26.667869,PALM BEACH,4280 Palm Beach Blvd,Fort Myers,FL,33905,(239) 226-1351
-81.719872,26.709507,RIVERDL,14551 Fl-80,Fort Myers,FL,33905,(239) 694-0949
-81.940442,26.619438,DEL PRADO,1715 Del Prado Blvd,Cape Coral,FL,33904,(239) 574-7574
-81.888238,26.664521,FT MYERS-N.CLEVE,13741 N Cleveland Ave,Fort Myers,FL,33903,(239) 997-1367
-80.66998,26.675723,BELLE GLADE,833 S Main St,Belle Glade,FL,33430,(561) 996-7122
-80.20149,26.309157,REGENCY LAKES,6440 N State Rd 7,Coconut Creek,FL,33073,(954) 429-3766
-80.201248,26.284873,WILES ROAD & 441,4480 N Sr 7,Coconut Creek,FL,33073,(954) 933-9525
-80.182739,26.273285,COCONUT CREEK,4200 W Sample Rd,Coconut Creek,FL,33073,(954) 968-3310
-80.202161,26.332738,SANDALFOOT,23073 Sandalfoot Plaza Dr,Boca Raton,FL,33428,(561) 483-9676
-80.229268,26.272624,CORAL SPRGS,7751 W Sample Rd,Coral Springs,FL,33065,(954) 752-6710
-80.156924,26.318256,HILLS & POWERLN,3901 W Hillsboro Blvd,Deerfield Beach,FL,33442,(954) 426-5502
-80.247597,26.286438,WILES/UNIV.,9180 Wiles Rd,Coral Springs,FL,33076,(954) 341-4349
-80.132654,26.301598,MILITARY & 10TH,1205 S Military Tr,Deerfield Beach,FL,33442,(954) 421-1474
-80.155579,26.349593,PALMETTO/POWER,7030 Palmetto Park Rd,Boca Raton,FL,33433,(561) 392-6768
-80.164269,26.244735,ATLANTIC EXTENSI,1490 Nw 31 Ave,Pompano Beach,FL,33069,(954) 975-0072
-80.199271,26.235801,MARGATE,5367 W Atlantic Blvd,Margate,FL,33063,(954) 972-6530
-80.132356,26.274442,SAMPLE RD,630 W Sample Rd,Pompano Beach,FL,33064,(954) 943-3055
-80.278294,26.29957,SAWGRASS/CORAL,5741 Coral Ridge Dr,Coral Springs,FL,33065,(954) 575-0048
-80.202644,26.370154,MISSION BAY,20594 State Rd 7,Boca Raton,FL,33498,(561) 482-6110
-80.225576,26.227825,SOUTHGATE,7520 Southgate Blvd,North Lauderdale,FL,33068,(954) 726-3777
-80.127606,26.260086,COPANS RD. & I -,320 Nw 24th Street,Pompano Beach,FL,33060,(954) 784-0440
-80.28194,26.27343,SAMPLE/CRL RDG,11655 W Sample Rd,Coral Springs,FL,33065,(954) 346-0710
-80.25548,26.238756,NTIC/UNIV.,630 University Dr,Coral Springs,FL,33071,(954) 344-2622
-80.157156,26.230478,PALM AIRE,1 Sw 26th Avenue,Pompano Beach,FL,33069,(954) 971-7626
-80.108209,26.318057,DEERFLD BCH-3RD,300 W Hillsboro Blvd,Deerfield Beach,FL,33441-0978,(954) 481-9426
-80.221505,26.207843,MCNAB & ROCK ISL,7200 W Mcnab Road,North Lauderdale,FL,33068,(954) 726-6340
-80.094718,26.290898,LGHTHOUSE PT-US1,4830 N Federal Hwy,Lighthouse Point,FL,33064,(954) 427-8141
-80.122182,26.364495,"BOCA RATON, BOCA",1776 N Military Trail,Boca Raton,FL,33486,(561) 391-5185
-80.27021,26.227867,PINE ISL,8375 Pine Island Rd,Tamarac,FL,33321,(954) 722-6710
-80.098918,26.268923,NORTH POMPANO,3091 N Federal Hwy,Pompano Beach,FL,33064,(954) 943-8410
-80.156757,26.203597,CYPRESS-POWERLIN,929 Nw 62nd St,Fort Lauderdale,FL,33309,(954) 491-6363
-80.103647,26.232016,A & F,2025 E Atlantic Blvd,Pompano Beach,FL,33060,(954) 781-1920
-80.25267,26.194323,TAMARAC,7600 Nw 57th Street,Tamarac,FL,33321,(954) 722-1120
-80.156033,26.188047,EXECUTIVE,950 W Commercial Blvd,Fort Lauderdale,FL,33309,(954) 928-0910
-80.145762,26.40853,CLINT MOORE/JOG,2911 Clintmoore Rd,Boca Raton,FL,33496,(561) 994-3602
-80.203091,26.179883,LAUDERDALE LAKES,4398 North State Road 7,Lauderdale Lakes,FL,33309,(954) 739-8040
-80.107533,26.206575,BAY COLONY,6360 North Federal Hwy,Fort Lauderdale,FL,33308,(954) 771-2230
-80.273378,26.193209,COMM'L & 94TH AV,9220 W Commercial Blvd,Sunrise,FL,33351-4300,(954) 578-1180
-80.103128,26.393288,"BOCA RATON, YAMA",710 Yamato Road,Boca Raton,FL,33431,(561) 549-0174
-80.128907,26.188694,CMRCL,1352 E Commercial,Fort Lauderdale,FL,33334,(347) 768-6450
-80.077051,26.368989,5TH AVENUE,2140 N Federal Hwy,Boca Raton,FL,33431,(561) 392-7776
-80.185445,26.165777,OAKLD FOREST,3073 West Oakland Park Boulevard,Oakland Park,FL,33311,(954) 733-6839
-80.268358,26.177102,PINE ISLAND,4301 Pine Island Road,Sunrise,FL,33351-6045,(954) 572-1911
-80.224519,26.164376,OAKLAND & 55TH,5510 W Oakland Park Blvd,Lauderhill,FL,33313,(954) 777-3445
-80.148806,26.166799,OAKLAND PARK,265 W Oakland Park Blvd,Oakland Park,FL,33311,(954) 565-8881
-80.098677,26.177289,GALT OCEAN MILE,4032 N Ocean Blvd,Fort Lauderdale,FL,33308,(954) 563-6255
-80.256624,26.152414,SUNRISE-UNIVRSTY,2260 N University Dr,Sunrise,FL,33322,(954) 742-8280
-80.295706,26.169387,OAKLAND & HIATUS,10901 W Oakland Park Blvd,Sunrise,FL,33351,(954) 747-7155
-80.115819,26.16126,CORAL RIDGE-FDRL,2700 N Federal Hwy,Fort Lauderdale,FL,33306,(954) 564-2910
-80.160314,26.454144,ATLANTIC A,7229 Atlantic Avenue,Delray Beach,FL,33446,(954) 803-3646
-80.202142,26.139536,LAUDERHIL-40TH A,1140 40th Ave,Lauderhill,FL,33313,(954) 583-5226
-80.283625,26.153254,SUNRISE UNVSTY,10013 Sunset Strip,Sunrise,FL,33322,(954) 748-6706
-80.173807,26.136185,I-95&SUNRISE,2300 W Sunrise Blvd,Fort Lauderdale,FL,33311,(954) 316-0007
-80.140981,26.136633,EAST SUNRISE REL,300 E Sunrise Blvd,Fort Lauderdale,FL,33304,(954) 763-5543
-80.085477,26.439176,LINTON,1220 Linton Blvd,Delray Beach,FL,33445,(561) 279-0498
-80.123182,26.459394,DELRAY,14529 Military Trl,Delray Beach,FL,33445,(561) 495-6583
-80.17442,26.121153,BROWARD & 27,2410 W Broward Blvd,Fort Lauderdale,FL,33312,(954) 583-2631
-80.144285,26.122705,BROWARD BLVD,27 W Broward Blvd,Fort Lauderdale,FL,33301,(954) 463-7393
-80.331458,26.146375,SAWGRASS,13655 W Sunrise Blvd,Sunrise,FL,33323,(954) 846-8634
-80.178156,26.106043,DAVIE & RIVERLAN,2700 Davie Blvd,Fort Lauderdale,FL,33312,(954) 791-2830
-80.200787,26.100238,STATE-LAUDERDALE,1600 S State Hwy Seven,Fort Lauderdale,FL,33317,(954) 587-2182
-80.250569,26.103006,PLANTATION II,1351 S University Dr,Plantation,FL,33324,(954) 475-0289
-80.136357,26.101007,FT L.-CAUSEWAY,1630 S Federal,Fort Lauderdale,FL,33316,(954) 527-1204
-80.298513,26.109927,THE PLAZA,11200 Sr 84,Davie,FL,33325,(954) 475-1532
-80.157219,26.092066,SR 84 & 12 AVE,1201 State Hwy 84,Fort Lauderdale,FL,33315,(954) 527-1017
-80.229447,26.086358,NOVA DRIVE,6405 Nova Dr,Davie,FL,33317,(954) 424-2408
-80.331098,26.117301,SHENANDOAH,13642 Sr 84,Davie,FL,33325,(954) 473-2422
-80.091062,26.512103,BOYNTON CONGRESS,1701 S. Congress Ave,Boynton Beach,FL,33426,(561) 732-3331
-80.147972,26.529543,BOYNTON & JOG,9915 Jog Rd,Boynton Beach,FL,33437,(561) 732-7999
-80.122337,26.529131,BOYNTON BCH W,9858 Military Trl,Boynton Beach,FL,33436,(561) 738-0961
-80.362638,26.106874,WESTON,1020 Weston Rd,Fort Lauderdale,FL,33326,(954) 384-1256
-80.05871,26.512358,BOYNTON BEACH,1810 S Federal Hwy,Boynton Beach,FL,33435,(561) 737-4848
-80.206821,26.052417,HARDROCK,5530 S State Road 7,Davie,FL,33314,(954) 791-3852
-80.283698,26.063591,COOPER CITY,10260 Griffin Rd,Cooper City,FL,33328,(954) 434-6938
-80.393714,26.118287,INDIAN TRACE,326 Indian Trace,Weston,FL,33326-2996,(954) 384-4450
-80.159686,26.047751,STIRLING,2690 Stirling Rd,Hollywood,FL,33024,(954) 920-4446
-80.231845,26.045567,DAVIE RD EXT,4295 N Davie Road Ext,Hollywood,FL,33024,(954) 432-3134
-80.091105,26.544195,CONG/22ND,1799 N Congress Blvd,Boynton Beach,FL,33435,(561) 369-1550
-80.165193,26.033807,SHERIDAN & I-95,2851 Sheridan St,Hollywood,FL,33020,(954) 925-9397
-80.143686,26.035724,DANIA-FEDERAL,1310 S Federal Hwy,Dania,FL,33004,(954) 920-5553
-80.208854,26.027423,HOLLYWOOD,1900 N State Road 7,Hollywood,FL,33021,(954) 981-7288
-80.312393,26.045591,FLAMINGO,5986 S Flamingo Rd,Cooper City,FL,33328,(954) 434-0615
-80.359969,26.064214,GRIFFIN,4492 Weston Rd,Davie,FL,33331,(954) 385-3828
-80.249064,26.021688,PEMBROKE PINES,1490 N University Dr,Pembroke Pines,FL,33024,(954) 432-5150
-80.114499,26.571189,HYPOLUXO & MILIT,4614 Hypoluxo Rd,Lake Worth,FL,33463,(561) 296-0715
-80.298043,26.022201,TAFT & HIATUS,11100 Taft Street,Pembroke Pines,FL,33026-2735,(954) 432-1100
-80.145193,26.589189,JOG/LANTANA,6342 Lantana Rd,Lake Worth,FL,33463,(561) 641-6717
-80.359581,26.030125,COQUINA FLATS SC,15911 Sheridan St,Fort Lauderdale,FL,33321,(954) 252-6018
-80.06738,26.58593,LANTANA,1450 W Lantana Rd,Lantana,FL,33462,(561) 582-5495
-80.314387,26.007037,PINES & FLAMINGO,12480 S Pines Blvd,Pembroke Pines,FL,33027,(954) 436-2342
-80.167175,26.618017,NASSAU SQUARE,7793 Lake Worth Rd,Lake Worth,FL,33467,(561) 721-1565
-80.138819,26.618685,GREENACRES,6000 Lake Worth Rd,Greenacres,FL,33463,(561) 439-1574
-80.089547,26.622422,LAKE WORTH,3671 S Congress,Lake Worth,FL,33460,(561) 968-8484
-80.204858,26.639313,VILLAGE GREEN,2755 S Sr 7,Wellington,FL,33414,(561) 721-8673
-80.394906,26.008319,PEMBROKE PINES,18489 Pines Blvd,Pembroke Pines,FL,33029,(954) 430-5330
-99.263797,26.894099,ZAPATA/HWY 83,116 South Us Hwy 83,Zapata,TX,78076,(956) 765-6700
-98.139989,27.227062,FALFURRIAS,118 North Highway 281,Falfurrias,TX,78355,(361) 325-2151
-82.349289,26.939976,ENGLEWOOD,1250 S Mccall Rd,Englewood,FL,34223,(941) 474-9486
-82.225958,26.933907,GASPARILLA ROAD,13418 S Mccall Rd,Port Charlotte,FL,33981,(941) 828-0061
-82.220749,27.039106,NORTH PORT,14805 Tamiami Trl,North Port,FL,34287,(941) 200-2540
-82.39181,27.05038,JACARANDA & 41,4269 S Tamiami Tr,Venice,FL,34293,(941) 497-4776
-82.132884,27.005897,MURDOCK-TAMIAMI,1805 Tamiami Trl,Port Charlotte,FL,33948,(941) 627-8999
-82.208007,27.070776,HERON CREE,1013 Front Place,North Port,FL,34287,(941) 429-7820
-82.100082,26.983596,PROMENADES,3232 Tamiami Trl,Port Charlotte,FL,33952,(941) 624-6199
-82.423277,27.070933,SOUTH VENICE,1720 S Tamiami Trail,Venice,FL,34293,(941) 493-4555
-82.069137,26.95969,CHARLOTTE,4695 Tamiami Trl,Port Charlotte,FL,33980,(941) 629-4681
-82.385298,27.105602,VENICE I-75,325 Commercial Ct,Venice,FL,34292,(941) 486-1138
-82.438499,27.107651,VENICE-NO VENICE,480 N Venice By-Pass,Venice,FL,34292,(941) 485-6619
-82.054962,27.016944,PEACHLAND,24133 Peachland Blvd,Port Charlotte,FL,33954,(941) 764-0300
-82.418747,27.136891,LAUREL & PINEBRO,2480 Laurel Rd E,Venice,FL,34275,(941) 484-2608
-82.006595,26.896231,PUNTA GORD,9083 Mac Drive,Punta Gorda,FL,33950,(941) 637-3902
-81.941232,26.70002,DEL PRADO,2541 Del Prado N,Cape Coral,FL,33909,(239) 242-8498
-81.972938,26.652003,SANTA BARBARA,8 Ne Pine Island Rd,Cape Coral,FL,33909,(239) 772-5888
-82.483459,27.268746,CLARK ROAD,5821 Derek Ave,Sarasota,FL,34233,(941) 921-1979
-82.52352,27.261972,STICKENY ROAD,6347 S Tamiami Trl,Sarasota,FL,34231,(941) 922-1064
-81.905556,26.68261,PINE ISL,3061 Ne Pine Island Rd,Cape Coral,FL,33909,(239) 997-4797
-82.450934,27.298297,CATTLEMEN,3901 Cattlemen Rd,Sarasota,FL,34233-5001,(941) 378-2511
-82.49304,27.298311,BEE RIDGE,3828 Bee Ridge Rd,Sarasota,FL,34231,(941) 922-4406
-81.8508,26.69989,BAYSHORE S,6431 Bayshore Rd N,North Fort Myers,FL,33917,(239) 543-2269
-82.530085,27.299198,SOUTHGATE,3875 S Tamiami Trail,Sarasota,FL,34239,(941) 954-7589
-81.438738,26.761277,LA BELLE,21 West Hickpochee Avenue,La Belle,FL,33935,(863) 675-0499
-81.84566,27.210885,ARCADIA-12TH AVE,1203 E Oak St,Arcadia,FL,34266,(863) 494-1312
-81.357682,27.293605,LAKE PLACID-H27,321 Us Hwy 27 S,Lake Placid,FL,33852,(863) 465-7177
-80.945049,26.75483,CLEWISTON,905 W Sugarland Hwy,Clewiston,FL,33440,(863) 983-9521
-80.830602,27.205925,OKEE SOUTH,4151 Us Hwy 441 S,Okeechobee,FL,34974,(863) 763-5856
-80.826145,27.244103,OKEECHOBEE NORTH,401 Ne Park St,Okeechobee,FL,34972,(863) 763-5826
-80.46395,27.018198,INDIANTOWN,15438 Sw Warfield Blvd,Indiantown,FL,34956,(772) 597-0073
-80.191923,26.941555,JUPITER FARMS,10030 Indian Town Rd,Jupiter,FL,33468,(561) 743-8434
-80.139167,26.933924,INDIANTOWN,6760 Indiantown Rd,Jupiter,FL,33458-3978,(561) 744-4611
-80.104818,26.883599,ABACOA,5480 Military Trl,Jupiter,FL,33458-2862,(561) 627-7440
-80.081092,26.935504,JUPITER,181 N Us 1,Jupiter,FL,33458,(561) 746-2529
-80.084757,26.821607,BURNS & A1A,9880 Florida A1a Alternate,Palm Beach Gardens,FL,33410,(561) 630-4634
-80.094413,26.809221,N LAKE,3805 Northlake Blvd,Palm Beach Gardens,FL,33403,(561) 626-8917
-80.058922,26.852921,JUNO,12025 Us Hwy 1,North Palm Beach,FL,33408,(561) 626-9529
-80.101992,26.783904,BLUE HERON,4145 Blue Heron Blvd,West Palm Beach,FL,33404,(561) 848-6783
-80.292719,26.779411,SEMINOLE PRATT &,15880 Orange Blvd,Loxahatchee,FL,33470,(561) 791-8591
-80.10463,26.760095,45TH/MILITA,4275 45th St,West Palm Beach,FL,33409,(561) 684-7405
-80.054739,26.790993,BROADWAY,3551 N Broadway,Riviera Beach,FL,33404,(561) 844-3846
-80.137207,27.062174,HOBE SOUND,11671 Se Federal Hwy,Hobe Sound,FL,33455,(772) 546-2082
-80.073623,26.753706,45TH ST.,1207 W 45th St,West Palm Beach,FL,33401,(561) 848-1632
-80.198202,26.710021,OKEECHOBEE & 441,9835 Okeechobee Blvd,West Palm Beach,FL,33411,(561) 202-6740
-80.228443,26.709532,OKEECHOBEE & RP,1400 Royal Palm Beach Boulevard,Royal Palm Beach,FL,33411,(561) 333-8866
-80.152843,26.707282,OKEE & JOG,6858 Okeechobee Blvd,West Palm Beach,FL,33411,(561) 687-3070
-80.084266,26.723363,CONGRESS & PALM,1720 Palm Beach Lakes Blvd,West Palm Beach,FL,33401,(561) 640-4280
-80.111819,26.703748,PINE TRAIL,1775 Military Trl,West Palm Beach,FL,33409,(561) 684-9120
-80.089086,26.706936,OKEECHOBEE,2421 Okeechobee Boulevard,West Palm Beach,FL,33401,(561) 686-7177
-80.258349,27.111397,STUART 76,7596 Sw Lost River Rd,Stuart,FL,34997-7454,(772) 781-2326
-80.201726,26.678279,SOUTHERN / 441,100 State Rd 7,West Palm Beach,FL,33414,(561) 795-7001
-80.205667,27.132043,US 1   COV,5960 Se Federal Hwy,Stuart,FL,34997,(772) 463-8102
-80.058109,26.690037,WPB-BELVEDERE,650 Belvedere Rd,West Palm Beach,FL,33405,(561) 655-1761
-80.267367,26.660874,WELLINGTON,1470 Greenview Shores Blvd,Wellington,FL,33414,(561) 790-7071
-80.112026,26.665319,MILITARY,828 S Military Trl,West Palm Beach,FL,33406,(561) 683-7592
-80.145854,26.651647,FOREST HILL &JOG,6581 Forest Hill Blvd,West Palm Beach,FL,33415,(561) 969-0715
-80.225557,27.162194,STUART SOUTH,3600 Se Federal Hwy,Stuart,FL,34997,(772) 287-7714
-80.089645,26.651352,FOREST & CONGRES,3015 Forest Hill Blvd,Palm Springs,FL,33406,(561) 623-0931
-80.113219,26.638634,SHOPPES OF CREST,2605 S Military Trail,West Palm Beach,FL,33415,(561) 209-2520
-80.29263,27.17189,MARTIN DOWNS,2900 Sw Martin Downs Rd,Palm City,FL,34990,(772) 220-4062
-80.056775,26.643753,ARBOR,2501 N Dixie Hwy,Lake Worth,FL,33460,(561) 582-1174
-80.250259,27.189291,STUART CENTRAL,970 Se Federal Hwy,Stuart,FL,34994-3703,(772) 283-2948
-80.272764,27.245049,JENSEN BEACH,3546 Nw Federal Hwy,Jensen Beach,FL,34957-4424,(772) 692-2600
-80.376296,27.24977,DARWIN,3199 Sw Port Saint Lucie Blvd,Port Saint Lucie,FL,34953-3228,(772) 878-0600
-80.318807,27.271513,RIVERGATE,1080 Se Port St Lucie,Port Saint Lucie,FL,34952,(772) 337-2600
-80.401137,27.264145,GATLIN & ROSSER,1740 Sw Gatlin Blvd,Port Saint Lucie,FL,34953,(772) 336-4887
-80.429657,27.271577,TRADITION,10604 Sw Village Pkwy,Port Saint Lucie,FL,34987,(772) 345-2920
-80.319852,27.326492,PRIMA VISTA /US,7626 S Federal Hwy,Port St. Lucie,FL,34983,(772) 971-3864
-99.503839,27.50935,LAREDO-URSULA,1120 Santa Ursula,Laredo,TX,78040-4542,(956) 724-4911
-99.503871,27.543587,SAN BERNARDO,4717 San Bernardo,Laredo,TX,78040,(956) 723-0201
-99.512399,27.590466,MINES RD,9814 Fm 1472,Laredo,TX,78045,(956) 712-9488
-99.501544,27.567612,I 35 DEL M,102 W. Del Mar Blvd,Laredo,TX,78045,(956) 717-2034
-99.47611,27.47458,ZACATECAS,2502 Hwy 83,Laredo,TX,78046,(956) 729-1127
-99.475916,27.530284,LAREDO-SAUNDERS,2101 Saunders St,Laredo,TX,78040,(956) 724-1702
-99.472844,27.506221,LAREDO GUA,2301 Guadalupe Street,Laredo,TX,78043,(956) 722-7605
-99.477365,27.446776,LAREDO - SIERRA,4719 S Us Hwy 83,Laredo,TX,78046,(956) 795-0693
-99.474178,27.453294,(WM) HWY 83 AT L,4401 HIGHWAY 83 S (Walmart),Laredo,TX,78046,(956) 753-2200
-99.472852,27.574761,DEL MAR/MCPHERSO,7701 Mcpherson Road,Laredo,TX,78046,(956) 728-9626
-99.460946,27.464781,LOMAS-LAREDO,3320 Lomas Del Sur Boulevard,Laredo,TX,78046,(956) 814-7859
-99.451698,27.518206,CLARK AT LOOP 20,2320 BOB BULLOCK LOOP (Walmart #3518),Laredo,TX,78043,(956) 728-7874
-99.472378,27.610509,"LAREDO, LOOP 20",2311 Ne Bob Bullock Loop,Laredo,TX,78045,(956) 718-2112
-99.447174,27.558783,JACAMANN @ LOOP,2515 Jacaman Road,Laredo,TX,78041,(956) 712-8171
-99.462383,27.610843,"WM LAREDO, LOOP",2615 BOB BULLOCK LOOP (Walmart),Laredo,TX,78045,(956) 718-9934
-99.461373,27.684176,I-35 NORTH (PILO,1101 Uniroyal Drive,Laredo,TX,78045,(956) 728-8570
-98.678373,27.312903,"HEBBRONVILLE,TX",711 N Smith Ave,Hebbronville,TX,78361,(956) 691-0028
-98.082144,27.752441,BUS. 281 & 3RD S,212 N Johnson,Alice,TX,78332,(361) 664-8020
-98.060293,27.753267,ALICE-HWY 44,1220 E Main,Alice,TX,78332-5049,(361) 664-8790
-97.845789,27.490799,"KINGSVILLE, HWY",2702 S Hwy 77 Bypass,Kingsville,TX,78363,(361) 516-0450
-97.855659,27.515425,KINGSVILLE-14TH,208 S 14th St,Kingsville,TX,78363-5839,(361) 592-7072
-97.655629,27.785439,ROBSTWN-US 77,301 S Hwy 77,Robstown,TX,78380-4310,(361) 387-8712
-97.396077,27.6654,CORPUS CHR,7522 S Staples,Corpus Christi,TX,78414,(361) 906-2260
-97.411427,27.698509,CORPUS-SARATOGA,4031 Saratoga Blvd,Corpus Christi,TX,78415,(361) 855-0876
-97.440483,27.742888,SPID AT GREENWOO,1610 S Padre Island Dr,Corpus Christi,TX,78416,(361) 225-0511
-97.412313,27.727412,SPID-KOSTORYZ,3211 S Padre Island Dr,Corpus Christi,TX,78415-2902,(361) 852-6877
-97.368387,27.678389,"CORPUS CHRISTI,",6306 Saratoga,Corpus Christi,TX,78414,(361) 991-1528
-97.419465,27.752263,CC SOUTH PORT,4102 S Port Ave,Corpus Christi,TX,78415-5310,(361) 855-2531
-97.370255,27.708482,C CHRISTI/PADRE,5560 S Padre Island Dr,Corpus Christi,TX,78411-4108,(361) 992-5214
-97.586501,27.846607,CORPUS CHRISTI,11202 Leopard St,Corpus Christi,TX,78410,(361) 242-9103
-97.388412,27.739541,DALLAS/STAPLES,3745 S Staples,Corpus Christi,TX,78411,(361) 857-2373
-97.34171,27.692249,RODD FIELD AND S,1522 Roddfield Road,Corpus Christi,TX,78412,(361) 906-0882
-97.403122,27.76423,STAPLES/LOUISIAN,2222 S Staples,Corpus Christi,TX,78404,(361) 882-8289
-97.362124,27.725017,AIRLINE/ALAMEDA,4730 S Alameda,Corpus Christi,TX,78412,(361) 985-8018
-97.440735,27.796706,CRP CHRS-LEOPRD,4101 Leopard St,Corpus Christi,TX,78408-2825,(361) 884-8601
-97.412167,27.777941,CRPS CHRISTI-MRG,2021 Morgan Ave,Corpus Christi,TX,78405-1541,(361) 882-1411
-97.283411,27.665974,FLOUR BLUFF,1229 Waldron Rd,Corpus Christi,TX,78418,(361) 939-7907
-82.634509,27.463072,PARADISE BAY,7300 Cortez Rd,Bradenton,FL,34210,(941) 254-7108
-82.748744,27.738669,ST PETE BCH-GULF,6855 Gulf Blvd,St Pete Beach,FL,33706,(727) 367-4037
-82.628908,27.496392,MANATEE,6708 Manatee Ave W,Bradenton,FL,34209,(941) 794-6227
-82.598545,27.462064,CORTEZ,3631 Cortez Rd W,Bradenton,FL,34210-3106,(941) 756-9882
-82.793241,27.808948,MADEIRA BEACH,650 150th Avenue,Madeira Beach,FL,33708,(727) 392-6302
-82.702462,27.748596,GULFPORT,5111 Gulfport Blvd S,Gulfport,FL,33707,(727) 323-7911
-82.679877,27.726845,BAYWAY,4595 34 St S,St. Petersburg,FL,33711-4550,(727) 866-2370
-82.729676,27.793856,ST PETE-TYRONE,2315 Tyrone Blvd,St. Petersburg,FL,33710,(727) 381-5167
-82.574918,27.457322,14TH STREET,4711 14th St W,Bradenton,FL,34207-2002,(941) 755-9595
-82.786615,27.836313,SEMINOLE,7003 Seminole Blvd,Seminole,FL,33772,(727) 393-6816
-82.557989,27.520835,PALMETTO,699 10th St E,Palmetto,FL,34221-4072,(941) 729-9573
-82.762827,27.839893,STARKEY,8901 Park Blvd,Seminole,FL,33777-4301,(727) 398-1022
-82.679878,27.782344,NORTHSIDE,1020 34th St N,St. Petersburg,FL,33713-6544,(727) 327-4991
-82.728968,27.821375,66TH STREET,5464 66th St N,Saint Petersburg,FL,33709,(727) 544-5381
-82.563045,27.39494,AIRPORT,8164 N Tamiami Trl,Sarasota,FL,34243,(941) 351-1771
-82.547034,27.429687,63RD & 301,6228 15th St E,Bradenton,FL,34203,(941) 899-5079
-82.699504,27.809842,49TH STREET,4145 49th St N,Saint Petersburg,FL,33709-5735,(727) 525-0944
-82.638813,27.753916,4TH STREET SOUTH,1661 4th St S,St. Petersburg,FL,33705,(727) 894-2331
-82.8307,27.880831,WALSINGHAM,13875 Walsingham Rd,Largo,FL,33774,(727) 216-6917
-82.539909,27.578979,41 & 275,2425 69th Street E,Palmetto,FL,34221,(941) 224-9051
-82.521215,27.447679,ONECO,5299 33rd St E,Bradenton,FL,34203-4330,(941) 755-5886
-82.703379,27.838784,PINELLAS PARK,5170 Park Blvd N,Pinellas Park,FL,33781-3414,(727) 544-7333
-82.787622,27.890754,LARGO MALL,12976 Seminole Blvd,Largo,FL,33778,(727) 474-6988
-82.53154,27.371737,NORTHGATE BLVD,4301 N Washington Blvd,Sarasota,FL,34234,(941) 312-5887
-82.728297,27.863865,102ND AVENUE,10191 66th St N,Pinellas Park,FL,33782,(727) 544-7386
-82.680831,27.835943,PINELLAS SQUARE,7001 Us Hwy 19 N,Pinellas Park,FL,33781,(727) 522-3274
-82.638061,27.806436,38TH AVENUE,300 38th Ave N,Saint Petersburg,FL,33704-1332,(727) 896-6513
-82.500878,27.530987,ELLENTON,6103 Us Hwy 301 North,Ellenton,FL,34222,(941) 723-3476
-82.684913,27.8452,PINELLAS PK WM,8001 US HIGHWAY 19 N (Walmart),Pinellas Park,FL,33781-1742,(727) 576-6772
-82.394477,27.432532,SR 70 AND,14655 State Road 70 E,Bradenton,FL,34202,(941) 251-3162
-82.431308,27.484764,LAKEWOOD RANCH,11150 Sr 64,Bradenton,FL,34212,(941) 749-7909
-82.478332,27.493673,SR 64,604 67th Street Cir E,Bradenton,FL,34208,(941) 747-4979
-82.46961,27.445189,CREEKWOOD,7185 State Rd 70 East,Bradenton,FL,34203,(941) 739-1886
-82.430724,27.386051,WATERSIDE,6508 University Parkway,Sarasota,FL,34240,(941) 248-5100
-82.506135,27.389668,UNIVERSITY,8494 Lockwood Ridge Road,Sarasota,FL,34243,(941) 306-5097
-82.458407,27.33732,ANDERSON PARKWAY,5554 Fruitville Rd,Sarasota,FL,34232-6405,(941) 371-9165
-82.336761,27.712873,SUN CITY CENTER,4896 Sun City Center Blvd,Sun City Center,FL,33573,(813) 634-9325
-82.392938,27.713785,SUN CITY,3110 E College Ave,Ruskin,FL,33570,(813) 645-3776
-82.49893,27.337941,FRUITVILLE ROAD,3511 Fruitville Rd,Sarasota,FL,34237-9027,(941) 955-8840
-82.429501,27.735534,RUSKIN,5001 South Tamiami Trl,Ruskin,FL,33570,(813) 645-2637
-82.530107,27.328815,WASHINGTON,787 Washington Blvd,Sarasota,FL,34236,(941) 365-3030
-82.334202,27.795193,BIG BEND RD & HW,13118 S Us Hwy 301,Riverview,FL,33569,(813) 443-8407
-82.372184,27.792464,APOLLO BEACH,7032 Big Bend Road,Gibsonton,FL,33534,(813) 443-1840
-82.353655,27.847249,RIVERVIEW W*M #5,9205 GIBSONTON DR (Walmart #5300),Gibsonton,FL,33534,(813) 671-2559
-82.326122,27.855736,RIVERVIEW,9870 Us Hwy 301,Riverview,FL,33569,(813) 443-6749
-82.202679,27.860113,LITHIA SPRINGS,16701 Fishhawk Blvd,Lithia,FL,33547,(813) 324-8205
-82.319846,27.893216,BRANDON - BLOOMI,11007 Bloomingdale Ave,Riverview,FL,33569,(813) 849-6024
-82.270407,27.89328,BLOOMINGDALE,985 E Bloomingdale Ave,Brandon,FL,33511,(813) 685-9163
-82.506862,27.871825,INTERBAY,6505 S Dale Mabry Dr,Tampa,FL,33611,(813) 839-5252
-82.348808,27.91241,BRANDON PAVILLIO,3921 S Us Hwy 301 S,Riverview,FL,33578,(813) 626-4892
-82.323329,27.923815,LUMSDEN,11212 Causeway Blvd,Brandon,FL,33511,(813) 689-7931
-81.808963,27.536831,WAUCHULA-907 6TH,907 Us Hwy 17 S,Wauchula,FL,33873,(863) 773-4499
-82.291666,27.938259,BRANDON,502 W Brandon Blvd,Brandon,FL,33511,(813) 685-1355
-82.518043,27.894541,GANDY,4818 S Manhattan Ave,Tampa,FL,33611,(813) 837-3974
-82.253153,27.93839,VALRICO,2050 E State Rte 60,Valrico,FL,33594,(813) 662-0275
-82.368306,27.940415,CLAIR MEL,1002 S 78th St,Tampa,FL,33619,(813) 621-3326
-82.336503,27.943759,FAULKENBURG,10019 Adamo Dr,Tampa,FL,33619,(813) 252-3716
-81.493093,27.5108,NORTH SEBRING,3000 Us Hwy 27 N,Sebring,FL,33870,(863) 386-4669
-81.513911,27.592526,AVON PARK-US 27,339 Us Hwy 27 S,Avon Park,FL,33825,(863) 449-9793
-81.442413,27.470484,SEBRING-RT 27,3115 Us Hwy 27 S,Sebring,FL,33870,(863) 385-3065
-81.530961,27.756293,FROSTPROOF,705 N Scenic Hwy,Frostproof,FL,33843,(863) 635-7704
-81.801123,27.75455,FORT MEADE,200 N Charleston Ave,Fort Meade,FL,33841,(863) 285-6993
-81.556428,27.893637,EAST LAKE WALES,1978 State Route 60,Lake Wales,FL,33853,(863) 676-8110
-81.598725,27.900254,WEST LAKE WALES,416 W Central Ave,Lake Wales,FL,33853,(863) 676-3234
-80.513949,27.639883,HORIZON RELO 2,9080 20th Street,Vero Beach,FL,32966,(772) 563-2555
-80.548726,27.76699,FELLSMERE,9495 108th Ave,Vero Beach,FL,32967,(772) 925-9790
-80.448234,27.638297,VERO WEST,5875 20th Street,Vero Beach,FL,32966,(772) 569-2230
-80.397739,27.521593,INDRIO/KINGS,4878 N Kings Hwy,Fort Pierce,FL,34951,(772) 595-9044
-80.327501,27.454204,NORTH FT. PIERCE,615 N Us Highway 1,Fort Pierce,FL,34950,(772) 466-8481
-80.325307,27.422532,FT PIERCE @ US 1,2524 S Us Highway 1,Fort Pierce,FL,34982,(772) 465-1410
-80.340267,27.443895,DELAWARE AVE,1612 Delaware Avenue,Fort Pierce,FL,34950-3976,(772) 461-8060
-80.377768,27.588802,OSLO,754 S Us 1,Vero Beach,FL,32962,(772) 778-4378
-80.395701,27.41301,TURNPIKE,7001 Okeechobee Road,Fort Pierce,FL,34945-2605,(772) 466-7001
-80.400075,27.413346,FT PIERCE PILOT,7300 W Okeechobee Rd,Fort Pierce,FL,34945,(772) 464-1922
-80.356686,27.354269,ST JAMES,5435 Nw Saint James Dr,Port Saint Lucie,FL,34983,(772) 879-1891
-80.389677,27.636812,VERO BEACH,1925 Us 1,Vero Beach,FL,32960,(772) 567-8878
-80.405492,27.310904,ST LUCIE WEST,1750 Sw Saint Lucie West Blvd,Port Saint Lucie,FL,34986-2504,(772) 871-2600
-80.411647,27.688992,HARBOR POINT,5280 Us Hwy 1,Vero Beach,FL,32967,(772) 770-2888
-80.485655,27.837554,SEBASTIAN,13395 Us Hwy 1,Sebastian,FL,32958,(772) 388-9606
-99.855831,28.523602,CARRIZO SPRINGS,503 N 1st St,Carrizo Springs,TX,78834,(830) 876-5400
-99.239765,28.45056,COTULLA RELO,719 N Ih 35,Cotulla,TX,78014,(830) 879-4711
-98.023856,28.336977,GEORGE WEST,4066 Highway 59,George West,TX,78022,(361) 449-1230
-97.819618,28.112552,MATHIS,10539 N Sh 359,Mathis,TX,78368,(361) 547-7171
-97.532587,28.012437,SINTON LOVES TRA,13888 Fm 1945,Sinton,TX,78387,(361) 364-9230
-97.757269,28.422186,BEEVILLE-ST MARY,2301 N Saint Mary,Beeville,TX,78102-2436,(361) 358-4770
-97.318599,27.882701,PORTLAND-US 181,1300 Wildcat Dr,Portland,TX,78374,(361) 643-8115
-97.274538,28.310755,REFUGIO,427 N Alamo St,Refugio,TX,78377,(361) 526-9175
-97.042023,28.036766,ROCKPORT/35-BRDW,1302 Hwy 35 N,Rockport,TX,78382,(361) 790-7828
-97.175531,27.923564,ARANSAS PASS REL,2475 W Wheeler,Aransas Pass,TX,78336,(361) 758-9060
-82.780246,28.050495,CALADESI,2618 Bayshore Blvd,Dunedin,FL,34698,(727) 733-7271
-82.758639,28.019029,DUNEDIN/MAIN ST,1645 Main Street,Dunedin,FL,34698,(727) 734-3166
-82.738595,28.079991,PALM HARBOR-US19,33817 Us Hwy 19 N,Palm Harbor,FL,34684,(727) 781-7303
-82.74109,28.142238,TARPON SP-HWY 19,40728 Ushy 19 N,Tarpon Springs,FL,34689,(727) 943-8721
-82.787078,27.959784,MISSOURI,539 S Missouri Avenue,Clearwater,FL,33756,(727) 442-2887
-82.73917,28.044529,CURLEW RD,29978 Us Hwy 19 North,Clearwater,FL,33761,(727) 772-2576
-82.755291,27.990831,HERCULES,1934 N Hercules Ave,Clearwater,FL,33763,(727) 449-0220
-82.740409,28.20105,HOLIDAY-PLAZA,2909 Us Hwy 19 N,Holiday,FL,34691,(727) 934-7035
-82.787267,27.931132,JASPER,1590 Missouri Ave,Largo,FL,33770,(727) 286-7129
-82.7604,27.960953,GULF-TO-BAY,1860 Gulf To Bay Blvd,Clearwater,FL,33765,(727) 442-1286
-82.800228,27.917263,PINELLAS TRAIL,1250 W Bay Dr,Largo,FL,33770,(727) 581-9626
-82.706143,28.062516,BOOT RANCH,3480 E Lake Rd,Palm Harbor,FL,34685,(727) 789-1910
-82.708455,28.010527,SAFETY HARBOR,2454 Mcmullen Booth Road,Clearwater,FL,33759,(727) 754-2860
-82.74639,27.941768,NURSERY & BELCHE,1500 S Belcher Rd,Clearwater,FL,33764,(727) 530-1693
-82.72857,28.236125,NW PT RICHEY-#19,5309 Us Hwy 19s,New Port Richey,FL,34652,(727) 847-2470
-82.763327,27.91709,EAST BAY,2300 E Bay Dr,Largo,FL,33771,(727) 584-5985
-82.718385,27.960214,CLEARWATER MALL,2871 Gulf To Bay Blvd,Clearwater,FL,33759,(727) 797-3959
-82.694547,28.216666,ELFERS,7226 State Road 54,New Port Richey,FL,34653,(727) 376-1366
-82.747222,27.894734,LARGO -  BELCHER,7901 Ulmerton Rd,Largo,FL,33771,(727) 531-4841
-82.726445,27.91584,ROOSEVELT & 19,2675 Roosevelt Blvd,Largo,FL,33760,(727) 532-9994
-82.705563,28.258423,NEW PORT RICHEY,6604 Massachusetts Ave,New Port Richey,FL,34653,
-82.717366,28.281591,"PORT RICHEY,  US",8527 Us 19 N,Port Richey,FL,34668,(727) 848-3997
-82.652316,28.035551,OLDSMAR,4085 Tampa Rd,Oldsmar,FL,34677,(813) 855-5016
-82.666477,28.235276,RIVER XING CENTR,8937 Rancho Del Rio Drive,New Port Richey,FL,34655,(727) 375-2220
-82.626092,28.056234,WESTCHASE,12205 W Linebaugh Avenue,Tampa,FL,33626,(813) 818-0370
-82.636816,28.194388,TRINITY,10727 Sr 54,Trinity,FL,34655,(727) 376-8041
-82.676365,28.290239,NW PT RICH-LTTLE,9121 Little Road,New Port Richey,FL,34654,(727) 862-7482
-82.68101,27.893233,SHOWBOAT,3470 Ulmerton Rd,Clearwater,FL,33762,(727) 572-4556
-82.699863,28.330926,HUDSON 52 & 19,11929 Us Hwy 19,Port Richey,FL,34668,(727) 863-8533
-82.579599,28.085459,TAMPA,8506 Gunn Hwy,Odessa,FL,33556,(813) 920-5422
-82.625175,28.274113,RIVER RIDGE,11367 Ridge Rd,New Port Richey,FL,34654,(727) 856-3029
-82.658396,28.331619,HUDSON/RTE 52,9441 St Rd 52,Hudson,FL,34669,(727) 863-2248
-82.570694,28.065494,CITRUS PARK,8002 Citrus Park Dr,Tampa,FL,33625,(813) 792-2776
-82.569683,27.997025,TOWN & COUNTRY,7909 W Hillsborough Ave,Tampa,FL,33615,(813) 884-0229
-82.561941,28.025424,WATERS,7350 W Waters Ave,Tampa,FL,33634,(813) 884-6992
-82.639339,27.859399,GANDY,9600 4th St N,Saint Petersburg,FL,33702,(727) 576-9405
-82.543282,28.082845,EHRLICH/TURNER,5393 Ehrlich Rd,Tampa,FL,33624,(813) 961-5152
-82.546329,28.187808,SUNCOAST PKWY &,16250 Sr 54,Odessa,FL,33556,(813) 926-7653
-82.647847,27.828919,RUTLAND PLAZA,925 62nd Ave N,Saint Petersburg,FL,33702,(727) 525-9083
-82.517253,27.996659,W HILLSBOROUGH,4333 W Hillsborough Ave,Tampa,FL,33614,(813) 886-4311
-82.502885,28.095809,NORTHDALE,15698 N Dale Mabry,Tampa,FL,33624,(813) 962-2667
-82.505389,28.045112,CARROLLWOOD,10410 N Dale Mabry Hwy,Tampa,FL,33618,(813) 961-8952
-82.501692,28.126898,VAN DYKE AND DAL,17757 N Dale Mabry,Lutz,FL,33548,(813) 968-6585
-82.507603,28.193541,54 & SUNLAKE,18672 State Road 54,Lutz,FL,33558,(727) 682-5332
-82.504538,28.008415,MINNEHAHA,6717 N Dale Mabry Hwy,Tampa,FL,33614,(813) 304-2100
-82.353814,28.14612,CROSS CREEK,19080 Bruce B Downs Blvd,Tampa,FL,33647,(813) 977-0076
-82.379296,28.117979,TAMPA PALMS,5101 Pointe Of Tampa Way,Tampa,FL,33647,(813) 866-9721
-82.245165,28.02105,MCINTOSH,4650 Mcintosh Rd,Dover,FL,33584-4132,(813) 659-0379
-82.393013,28.055392,TAMPA-UNIVERSITY,11707 N 56th St,Temple Terrace,FL,33617,(813) 988-1823
-82.354355,28.182435,WIREGRASS,1733 Bruce B Downs Blvd,Wesley Chapel,FL,33544,(813) 907-9400
-82.285408,27.981209,SEFFNER,610 E Dr Martin Luther King Jr,Seffner,FL,33584,(813) 685-3118
-82.394082,28.0115,56TH STREET,6906 N 56th St,Tampa,FL,33617,(813) 985-1270
-82.433505,28.068766,FLETCHER AVENUE,2205 E Fletcher Ave,Tampa,FL,33612,(813) 971-4775
-82.391646,28.193625,CYPRESS CREEK,2609 Creek Grass Way,Lutz,FL,33559,(813) 909-9339
-82.422232,28.032253,BUSCH BLVD,3411 E Busch Blvd,Tampa,FL,33612,(813) 988-6700
-82.247871,28.219359,EILAND & 54,34367 Sr 54,Wesley Chapel,FL,33545,(813) 782-1698
-82.450095,28.055029,FOWLER,920 E Fowler Ave,Tampa,FL,33612,(813) 971-8922
-82.386834,27.981066,I-4,6013 E Dr Martin Luther King Jr Blvd,Tampa,FL,33619,(813) 621-5961
-82.460441,28.087678,BEARSS,104 W Bearss Ave,Tampa,FL,33613,(813) 962-8573
-82.35848,28.238212,WESLEY CHAPEL,27643 State Rd 54 W,Wesley Chapel,FL,33543,(813) 907-2060
-82.463355,28.141908,LUTZ,106 Crystal Grove Blvd,Lutz,FL,33549,(813) 948-8610
-82.150616,28.02523,PLANT CITY,2601 Thonotosassa Rd,Plant City,FL,33566-1400,(813) 754-3945
-82.468639,28.068535,NORTH BLVD,926 W Fletcher Ave,Tampa,FL,33612,(813) 960-9109
-82.438587,27.996672,E HILLSBOROUGH,1908 E Hillsborough Ave,Tampa,FL,33610,(813) 239-3411
-82.459846,28.023042,FLORIDA AVENUE,8214 N Florida Ave,Tampa,FL,33604,(813) 935-4477
-82.402387,27.962125,BROADWAY,2006 N 50th St,Tampa,FL,33619,(813) 248-9885
-82.465013,28.192821,LAND O' LAKES-41,2420 Land Olakes Blvd,Land O' Lakes,FL,34639,(813) 949-7234
-82.189309,28.246177,ZEPHYRHILLS,6042 Gall Blvd,Zephyrhills,FL,33541,(813) 782-0229
-82.484577,28.025582,HILLSBOROUGH & A,8402 N Armenia Ave,Tampa,FL,33604,(813) 350-4011
-82.435167,27.96424,YBOR CITY,2101 E 13th Avenue,Tampa,FL,33605,(813) 248-5194
-82.454908,27.981131,M L KING,501 E Dr M L K Jr Dr,Tampa,FL,33603,(813) 225-2626
-82.122105,27.993013,REDMAN ROAD,2001 Redman Pky,Plant City,FL,33566,(813) 752-2239
-82.188608,28.267403,GALL & KOSSIK,7495 Gall Blvd.,Zephyrhills,FL,33541,(813) 782-0229
-82.484476,27.97475,ARMENIA,4009 N Armenia,Tampa,FL,33607,(813) 876-0707
-82.475405,27.944246,EAST KENNEDY,1520 W Kennedy Blvd,Tampa,FL,33606,(813) 251-6495
-82.055466,28.034135,COUNTY LINE RD,5325 Frontage Rd S,Lakeland,FL,33815-0902,(863) 603-0230
-82.504883,27.958967,SPRUCE,1905 N Dale Mabry Hwy,Tampa,FL,33607,(813) 876-1118
-82.480625,28.273305,CONNERTON,8000 Land O Lakes Blvd,Land O Lakes,FL,34638,(813) 235-6310
-82.519888,27.945169,KENNEDY BLVD,4443 W Kennedy Blvd,Tampa,FL,33607,(813) 287-1460
-82.506659,27.910894,SOUTHDALE,3515 S Dale Mabry Hwy,Tampa,FL,33629,(813) 839-6651
-82.186942,28.347804,DADE CITY,13026 Us Hwy 301,Dade City,FL,33525,(352) 567-0381
-81.995119,28.082014,KATHLEEN,3150 Kathleen Rd,Lakeland,FL,33810,(863) 937-3425
-81.974159,28.123464,GIBSONIA,6330 Us Highway 98 N,Lakeland,FL,33809-6247,(863) 859-2263
-81.972248,28.086273,98 NORTH,3420 Us Hwy 98 N,Lakeland,FL,33809-2803,(863) 859-1586
-81.97453,28.026355,CENTRAL,1211 Ariana St,Lakeland,FL,33803,(863) 687-9631
-81.962883,28.078633,GRIFFIN ROAD,2815 N Us Hwy 98,Lakeland,FL,33805,(863) 686-3917
-81.950658,28.054668,MEMORIAL,715 East Memorial Blvd,Lakeland,FL,33801,(863) 688-6265
-81.946084,28.113559,WALT LOOP,5525 Walt Loop Rd,Lakeland,FL,33809-8213,(863) 450-4434
-81.957398,28.011547,SO FLORIDA,2835 S Florida Ave,Lakeland,FL,33803,(863) 682-1688
-81.987159,27.938878,SHEPHERD ROAD,1805 Shepherd Rd,Lakeland,FL,33811,(863) 646-4060
-81.95917,27.9779,HIGHLANDS,4805 Florida Ave S,Lakeland,FL,33813,(863) 606-6478
-81.970367,27.933304,MULBERRY W*M - C,6900 N CHURCH AVE (Walmart #5035),Mulberry,FL,33860,(863) 701-9887
-81.924537,28.022972,GROVE PARK,1715 Bartow Road,Lakeland,FL,33801,(863) 688-9200
-81.907513,28.04838,COMBEE ROAD,2606 Hwy 92 E,Lakeland,FL,33801,(863) 665-1464
-81.972366,27.894545,MULBERRY,205 Canal St E,Mulberry,FL,33860,(863) 425-2660
-81.925448,27.953321,LAKELAND 540A,2210 Hwy 540a,Lakeland,FL,33813,(863) 644-7900
-81.879011,27.968064,HIGHLAND TC,4220 Clubhouse Rd,Lakeland,FL,33812,(863) 646-4685
-82.55036,28.434438,COUNTYLINE & MAR,10319 County Line Rd,Spring Hill,FL,34608,(352) 293-3136
-81.587467,28.114477,HAINES CITY,4152 E. Johnson Ave.,Haines City,FL,33844,(863) 421-1504
-81.635102,28.105106,HAINES CITY,317 Hinson Ave,Haines City,FL,33844,(863) 422-6569
-81.6403,28.126471,HAINES CITY - US,36204 Us Hwy 27 N,Haines City,FL,33844,(863) 421-8445
-81.63263,28.016732,DUNDEE,28064 Us Hwy 27 S,Dundee,FL,33838,(863) 439-3390
-81.639407,28.18257,HOLLY HILL,909 Workman Way,Davenport,FL,33837,
-81.471691,28.143477,WEST POINC,385 Cypress Parkway,Kissimmee,FL,34759,(407) 343-5877
-81.661283,27.977864,LAKE RUBY,6890 Cypress Gardens Blvd,Winter Haven,FL,33884,(863) 324-7744
-81.733615,28.025646,WINTER HVN-6TH,245 6th St Nw,Winter Haven,FL,33880,(863) 293-1445
-81.714194,28.003693,WINTER HVN-CYPRS,893 Cypress Gardens Blvd,Winter Haven,FL,33884,(863) 294-8711
-81.622879,27.960057,THOMPSON NURSERY,2500 Ridge Way,Lake Wales,FL,33859-7802,(863) 676-4742
-81.654376,28.23855,DAVENPORT,44400 Us Hwy 27n,Davenport,FL,33897,(863) 424-2269
-81.593378,28.259124,OVATION,8006 Osceola Polk Line Rd,Davenport,FL,33896,(863) 424-6197
-81.776661,28.05352,AUBURNDALE,498 Havendale Blvd,Auburndale,FL,33823,(863) 967-3835
-81.439572,28.18093,BELLALAGO,3845 Pleasant Hill Rd,Kissimmee,FL,34746,(321) 697-5680
-81.618614,28.262183,CHAMPIONS GATE,8279 Champions Gate Blvd,Champions Gate,FL,33896,(407) 396-2440
-81.726533,27.956505,WNT HVN- WAHNETA,116 East 2nd Street,Winter Haven,FL,33880,
-81.781876,28.004422,SPIRIT LAKE,2019 Spirit Lake Rd,Winter Haven,FL,33880,(863) 293-2328
-81.802103,28.155962,POLK CITY,1801 State Road 559,Polk City,FL,33868-9369,(863) 875-4228
-81.815898,28.056507,WEST AUBURNDALE,2207 Us Hwy 92,Auburndale,FL,33823,(863) 967-4350
-81.564817,28.303323,CELEBRATION,1720 Celebration Boulevard,Kissimmee,FL,34747,(321) 939-4152
-81.666572,28.308627,27 AND SAND MINE,49561 Us Highway 27,Davenport,FL,33897,(863) 353-1170
-81.434171,28.262627,PLST HILL,3191 S John Young Parkway,Kissimmee,FL,34746,(407) 933-4388
-81.591816,28.336675,HOBO JCT,7627 W Irlo Bronson Memorial Pkwy,Kissimmee,FL,34746,(407) 397-3184
-81.513709,28.333526,OSCEOLA,5725 W Irlo Bronson Memorial Pky,Kissimmee,FL,34746,(407) 396-6465
-81.628787,28.346173,CAPT KIDD,8530 W Irlo Bronson Memorial Pky,Kissimmee,FL,34747-1014,(407) 396-8082
-81.471552,28.320317,SPACECOAST,4706 W Irlo Bronson Memorial Pky,Kissimmee,FL,34746-5325,(407) 396-6399
-81.576837,28.348866,ALLSTAR DISNEY,1596 W Buena Vista Dr,Lake Buena Vista,FL,32830,(407) 939-0875
-81.676267,28.351693,FOUR CORNERS,16832 Corner Center Dr,Clermont,FL,34714,(352) 243-1862
-81.41157,28.304957,KISSIMMEE,719 W Vine St,Kissimmee,FL,34741-4160,(407) 343-0784
-81.503538,28.368914,535 AND VISTANA-,13506 State Road 535,Orlando,FL,32821,(689) 245-9972
-81.431404,28.341356,OSCEOLA VILLAGE,2704 W Osceola Pkwy,Kissimmee,FL,34741,(407) 846-0376
-81.358695,28.288152,SIMPSON,2110 E Irlo Bronson Memorial Hwy,Kissimmee,FL,34744,(407) 933-8007
-81.293286,28.196496,CROSSCREEK VILLA,3344 Canoe Creek Rd,Saint Cloud,FL,34772,(407) 891-6011
-81.842888,27.908117,BARTOW,1470 N Broadway,Bartow,FL,33830,(863) 533-4003
-81.687291,28.379248,27 /GOLDEN EAGLE,2252 Us Hwy 27,Clermont,FL,34714,
-81.300657,28.246524,ST.CLOUD-13TH,2800 13th St,Saint Cloud,FL,34769,(407) 892-4198
-81.423117,28.361105,HUNTERS CREEK,14001 Towne Loop Blvd,Orlando,FL,32837-6131,(407) 438-8114
-81.388424,28.3411,GATEWAY COMMONS,1305 E Osceola Pkwy,Kissimmee,FL,34744,(407) 343-9196
-81.488983,28.388908,PREMIUM OUTLETS,8223 Vineland Avenue,Orlando,FL,32821-6807,(407) 238-0515
-81.636115,28.408893,WINTER GRDN AVLN,16030 Solaire St,Winter Garden,FL,34787,(407) 942-8197
-81.502722,28.4045,APOPKA AND,11195 S Apopka Vineland Road,Orlando,FL,32836,(689) 245-9973
-81.340113,28.31927,BOGGY CREEK-RELO,2576 Simpson Road,Kissimmee,FL,34744,(407) 348-8644
-81.450275,28.407458,WILLIAMSBURG,5498 Central Florida Pkwy,Orlando,FL,32821-9774,(407) 238-0995
-81.366263,28.371838,MEADOW WOODS,13401 Landstar Blvd,Orlando,FL,32824-9436,(407) 857-5076
-81.244987,28.245485,192   HICK,4860 E Irlo Bronson Memorial Highway,Saint Cloud,FL,34769,(407) 498-0084
-81.405171,28.399988,WATERBRIDGE,11382 Us Hwy 441,Orlando,FL,32837,(407) 240-7599
-81.461309,28.423817,CONV CTR,9814 International Dr,Orlando,FL,32819-8123,(407) 345-8996
-81.560998,28.447877,LAKESIDE VILLAGE,7836 Winter Garden Vineland Rd,Windermere,FL,34786-5689,(407) 909-0271
-81.476551,28.439873,TURKEY LAKE W*M,8990 TURKEY LAKE ROAD (Walmart #4332),Orlando,FL,32819,(407) 218-4140
-81.480186,28.449599,ORLANDO - SAND L,7344 W Sand Lake Rd,Orlando,FL,32819,(407) 264-0770
-81.471428,28.450466,ORLANDO-SANDLAKE,6875 Sandlake Rd,Orlando,FL,32819,(424) 444-1169
-81.628475,28.471703,NEW INDEPE,5426 Hamlin Groves Trail,Winter Garden,FL,34787,(407) 614-3326
-81.426848,28.446869,S JOHN YOUNG PKW,8175 S John Young Pkwy,Orlando,FL,32839,(407) 218-4199
-81.424506,28.44753,JOHN YOUNG WM908,8101 S JOHN YOUNG PKY (Walmart),Orlando,FL,32819,(407) 354-3807
-81.402852,28.441261,LAQUINTA,8475 S Orange Blossom Trail,Orlando,FL,32809,(407) 857-1980
-81.451068,28.469297,INTERNATIONAL DR,5401 Altamira Dr,Orlando,FL,32819,(689) 326-1804
-81.459479,28.484031,KIRKMAN ROAD,5400 S Kirkman Rd,Orlando,FL,32819,(689) 326-1801
-81.233968,28.349284,BOGCOOSEE,14902 Narcoossee Road,Orlando,FL,32832,(407) 251-9921
-81.364791,28.452618,ORANGE AVE SO,8060 S Orange Ave,Orlando,FL,32809,(407) 855-6273
-81.397104,28.473261,OAK RIDGE,5890 S Orange Blossom Trail,Orlando,FL,32809,(954) 302-3773
-81.718434,28.50077,KINGS RIDGE,4307 S Highway 27,Clermont,FL,34711-5349,(352) 243-3185
-81.308055,28.431169,ORLANDO INT'L. -,Orlando Airport - Mco Food Court,Orlando,FL,32827,(407) 825-7331
-81.429577,28.491527,ORLANDO MILLENNI,4075 Millenia Blvd,Orlando,FL,32839,(407) 226-1622
-81.41685,28.488136,AMERICANA DR.,5107 S John Young Parkway,Orlando,FL,32839,(407) 851-5699
-81.58646,28.520433,FOWLER GROVES,3325 Daniels Rd,Winter Garden,FL,34787,(407) 654-1794
-81.336865,28.45208,ORLANDO-MCCOY,3713 Mc Coy Rd,Orlando,FL,32812,(407) 859-0431
-81.301579,28.435455,OIA - AIRSIDE 2,Orlando Airport - MCO GATES 100-129,Orlando,FL,32827,(407) 825-7333
-81.459638,28.511426,"ORLANDO,   ARNOL",2944 S Kirkman Rd,Orlando,FL,32811,(407) 296-6265
-81.462805,28.515442,ORLANDO - METROW,2500 S KIRKMAN RD (Walmart),Orlando,FL,32811,(954) 495-4238
-81.397458,28.496001,HOLDEN & OBT,4640 S Orange Blossom Tr,Orlando,FL,32839,(407) 270-8751
-81.422793,28.508481,L. B. MCLEOD RD,3804 Lb Mcleod Rd,Orlando,FL,32805,(407) 426-9898
-81.470612,28.524465,METROWEST,1411 S Hiawassee Road,Orlando,FL,32835,(407) 298-9366
-81.242338,28.412532,NARCOOSSEE & MOS,10701 Narcoossee Rd,Orlando,FL,32832-6935,(407) 273-3552
-81.330358,28.481361,CONWAY,5175 S Conway Rd,Orlando,FL,32812,(407) 856-6350
-80.738105,27.999328,PALM BAY-MALABAR,110 St Johns Heritage Pkwy Nw,Palm Bay,FL,32907,
-80.6721,28.10017,ELLIS ROAD,445 S Wickham Rd,West Melbourne,FL,32904,(321) 726-5858
-80.67219,28.139154,WICKHAM ROAD,1980 N Wickham Rd # 6768,Melbourne,FL,32935,(321) 242-6768
-80.715621,28.230928,SUN TREE,8280 Wickham Rd,Melbourne,FL,32940,(321) 242-7298
-80.66174,28.079293,W MELBOURNE,2450 W New Haven Ave,Melbourne,FL,32904,(321) 802-5160
-80.664722,28.036192,HAMMOCK LANDING,235 Palm Bay Rd W,Melbourne,FL,32904,(321) 956-0577
-80.737222,28.268241,VIERA & I-95,5370 Stadium Pkwy,Rockledge,FL,32955,(321) 632-1563
-80.673163,27.998667,MINTON ROAD,132 Malabar Rd Sw,Palm Bay,FL,32907-2943,(321) 951-8980
-80.674479,28.216064,PINEHURST,6420 N Wickham Rd,Melbourne,FL,32940,(321) 242-5758
-80.639082,28.122112,SARNO ROAD,1200 Sarno Rd,Melbourne,FL,32935,(321) 254-4267
-80.622757,28.084596,HIBISCUS,25 W Hibiscus Blvd,Melbourne,FL,32901,(321) 727-1403
-80.722716,28.292565,ROCKLEDGE-BARNES,3844 Murrel Rd,Rockledge,FL,32955,(321) 504-9688
-80.621182,28.03445,US PALM BAY RELO,4701 Babcock St Ne,Palm Bay,FL,32905,(321) 768-8027
-80.633516,27.999126,MALABAR,1179 Malabar Rd Ne,Palm Bay,FL,32907-3257,(321) 727-2714
-80.656868,27.949828,BAYSIDE,3475 Bayside Lake Blvd Se,Palm Bay,FL,32909,(321) 409-5007
-80.797751,28.359351,FOREST LAKES,4625 State Rd 520,Cocoa,FL,32926,(321) 633-6065
-80.719813,28.328289,ROCKLEDGE,1876 S Us Hwy 1,Rockledge,FL,32955,(321) 631-1394
-80.582761,28.138241,EAU GALLIE,1005 Eau Gallie Cswy,Melbourne,FL,32937,(321) 777-7501
-80.59299,28.184612,SATELLITE BCH,1080 Highway A1a,Satellite Beach,FL,32937,(321) 428-3868
-80.740937,28.374597,COCOA DIXON,927 Dixon Blvd,Cocoa,FL,32922,(321) 632-7441
-80.619197,27.897412,PALM BAY-BABCOCK,4655 St Johns Heritage Pkwy Se,Palm Bay,FL,32909,
-80.764504,28.397644,CLEARLAKE,2200 State Road 524,Cocoa,FL,32926,(321) 639-0660
-80.700537,28.374607,MERR ISL/N COURT,1000 N Courtenay Blvd,Merritt Island,FL,32953,(321) 220-3972
-80.608824,28.355375,COCOA BCH-ATLNTC,3920 N Atlantic Ave,Cocoa Beach,FL,32931,(321) 989-3450
-80.611852,28.396663,CAPE CANAVERAL,8780 Astronaut Blvd,Cape Canaveral,FL,32920,(321) 784-9944
-80.770492,28.479592,PORT ST JOHN,6857 N Highway 1,Cocoa,FL,32927,(321) 632-5919
-100.485504,28.708499,EAGLE PASS-MAIN,2130 Main St,Eagle Pass,TX,78852-4419,(830) 773-5141
-100.473048,28.68663,"EAGLE PASS, 3443",1860 S Veterans Boulevard,Eagle Pass,TX,78852,(830) 758-0781
-100.496806,28.739268,THE LOOP AT DEL,2401 Del Rio Blvd,Eagle Pass,TX,78852,(830) 752-1776
-99.093915,28.897549,"PEARSALL, N. OAK",625 N Oak St,Pearsall,TX,78061,(830) 334-2203
-98.185201,28.521457,THREE RIVERS TRA,2645 Hwy 37 S,Three Rivers,TX,78071,(361) 786-1020
-98.505892,28.944433,PLEASANTN/97-APC,1733 W Oaklawn,Pleasanton,TX,78064,(830) 569-5550
-97.859144,28.814794,KENEDY STO,109 N Sunset Strip,Kenedy,TX,78119,(830) 583-3700
-96.978073,28.767799,VICTORIA STO REL,3112 S Laurent St,Victoria,TX,77901,(361) 485-0201
-96.977284,28.810213,VICTORIA-HOUSTON,2701 Houston Hwy,Victoria,TX,77901-5740,(361) 578-4461
-97.000354,28.823979,VICTORIA-NAVARO,3112 N Navarro Rd,Victoria,TX,77901-3924,(361) 575-4342
-96.997082,28.867955,VICTORIA H,7808 N Navarro,Victoria,TX,77904,(361) 575-3390
-96.639279,28.619561,PT LAVACA-H 35,801 S Hwy 35 Byp,Port Lavaca,TX,77979-2415,(361) 552-4442
-96.650768,28.985132,EDNA/WELLS,817 N Wells St,Edna,TX,77957-2315,(361) 782-2005
-95.964951,28.983572,BAY CITY-7TH-AVE,2101 7th St,Bay City,TX,77414-5114,(979) 244-4290
-95.371179,28.969123,288 FREEPORT,923 Brazosport Blvd,Freeport,TX,77541,(979) 233-2381
-95.420627,29.011878,CLUTE-DIXIE,1028 Dixie Dr,Clute,TX,77531,(979) 297-3824
-95.461494,29.04877,LAKE JACKSON,118 Hwy 332 W,Lake Jackson,TX,77566,(979) 299-3008
-95.653151,29.136772,WEST COLUMBIA,808 S Columbia Dr,West Columbia,TX,77486,(979) 345-3623
-82.577049,28.80757,HOMOSASSA/H-19,3740 S Suncoast Blvd,Homosassa,FL,34448,(352) 621-1660
-82.553329,28.722819,SUGARMILL,9566 S Suncoast Blvd,Homosassa,FL,34446,(352) 419-4790
-82.62061,28.467013,SPRNG HIL-COMRCL,2350 Commercial Way,Spring Hill,FL,34606,(352) 683-8618
-82.587662,28.899521,CRYSTAL RV-US 19,625 Ne Us Highway 19,Crystal River,FL,34429,(352) 564-0533
-82.327446,28.832831,CITRUS PLA,240 Us Hwy 41 S,Inverness,FL,34450,(352) 344-1465
-82.139993,28.668141,"BUSHNELL, I-75 &",2195 W C 48,Bushnell,FL,33513,(352) 568-0005
-82.387769,28.85404,INVERNESS/E. GUL,2801 East Gulf To Lake Hwy,Inverness,FL,34453,(352) 344-4080
-82.399619,28.546463,BROOKSVILLE-MAIN,845 S Broad St,Brooksville,FL,34601,(352) 796-3124
-82.233312,28.522422,RIDGE MANOR,31038 Cortez Blvd,Brooksville,FL,34602-7519,(352) 754-1035
-82.509291,28.533065,MARINER SQUARE,13100 Cortez Blvd,Brooksville,FL,34613,(352) 596-7042
-82.485416,28.891805,BEVERLY HILLS,1988 N Lecanto Hwy,Lecanto,FL,34461,(352) 527-1990
-82.090933,28.872157,WILDWOOD,809 Fl-44,Wildwood,FL,34785,(352) 748-4288
-82.478885,28.481071,SPRINGHILL-SUNCO,15050 Spring Hill Dr,Spring Hill,FL,34604,(352) 593-4192
-82.00765,28.800273,WARM SPRIN,2210 Everglades Lane,The Villages,FL,32163,(352) 399-5336
-82.027952,28.842813,SR 44 AND SIGNAT,6006 Signature Dr,Wildwood,FL,34785,(352) 461-0888
-82.540485,28.492125,SPRING HILL-MARI,4166 Mariner Blvd,Spring Hill,FL,34609,(352) 686-7376
-82.541818,28.461702,SEVEN HILLS,11055 Springhill Dr,Spring Hill,FL,34608,(352) 610-9121
-82.031202,28.927947,"THE VILLAGES, HW",4080 Wedgewood Lane,The Villages,FL,32162,(352) 753-7360
-81.955349,28.865289,SR #466A - THE V,320 Colony Blvd,The Villages,FL,32162,(352) 753-9225
-82.160494,29.025985,MARION OAKS,2095 Sw 484,Ocala,FL,34473,(352) 307-0828
-81.875893,28.746857,OKAHUMPKA,27422 Us Hwy 27,Leesburg,FL,34748,(352) 365-6595
-82.255635,29.079698,SR 200,8240 Sr 200,Ocala,FL,34481,(352) 304-8117
-81.887029,28.824311,LEESBURG-14TH ST,1012 N 14th St,Leesburg,FL,34748,(352) 787-8991
-82.454959,29.060341,DUNNELLON,11232 N Williams St,Dunnellon,FL,34432,(352) 489-4620
-81.967857,28.961703,SPRUCE CREEK,17890 S Us Hwy 441,Summerfield,FL,34491,(352) 347-8440
-81.929754,28.930143,LADY LAKE,452 N Us Hwy 27,Lady Lake,FL,32159,(352) 674-1100
-81.858959,28.561903,GROVELAND,460 W Broad St,Groveland,FL,34736,(352) 429-9442
-82.056823,29.059982,BELLEVIEW,5515 Se Abshier Blvd,Belleview,FL,34420,(352) 203-4109
-81.541433,28.687926,APOPKA COMMONS,1678 W Orange Blossom Tr,Apopka,FL,32712,(407) 464-1909
-81.508694,28.708288,ROCK SPRINGS,1681 Rock Springs Rd,Apopka,FL,32712,(407) 880-4434
-81.623735,28.780794,STONEYBROOK HILL,6601 N Orange Blossom Tr,Mount Dora,FL,32757,(352) 735-1794
-81.506546,28.673712,APOPKA-MAIN,233 E Main St,Apopka,FL,32703,(407) 886-0822
-81.551807,28.602366,OCOEE WEST,2281 Ocoee Apopka Rd,Ocoee,FL,34761,(407) 656-0651
-81.643271,28.823569,MT DORA,18900 Us Hwy 441,Mount Dora,FL,32757,(352) 383-7233
-81.452977,28.671108,FOREST CITY,3141 E Semoran Blvd (Fl-436),Apopka,FL,32703,(407) 869-8076
-81.443712,28.707041,WEKIVA SPRINGS,3835 Wekiva Springs Rd,Longwood,FL,32779,(407) 865-7110
-81.517932,28.574185,CLARKE RD,1620 E Silver Star Rd,Ocoee,FL,34761,(407) 298-3755
-81.685855,28.827153,EUSTIS-BAY,2800 S Bay St,Eustis,FL,32726,(352) 357-5588
-81.583083,28.550653,WINTER GARDEN,13494 W Colonial Dr,Winter Garden,FL,34787,(407) 656-5550
-81.722386,28.593553,HANCOCK & CITRUS,1693 North Hancock Road,Minneola,FL,34715,(352) 432-5313
-81.748163,28.784229,TAVARES US 19,1965 State Road 19,Tavares,FL,32778,(352) 742-2893
-81.544449,28.552063,OCOEE,11131 W Colonial Drive,Ocoee,FL,34761,(407) 877-7272
-81.555113,28.850957,EUSTIS FL-44,24300 State Road 44,Eustis,FL,32736,(352) 792-1980
-81.441938,28.618841,LOCKHART,6820 N Orange Blossom Trl # 07599,Orlando,FL,32810,(407) 291-7352
-81.419696,28.659786,WEST TOWN CORNER,240 S State Rd 434,Altamonte Springs,FL,32714,(407) 788-2292
-81.474716,28.577974,HIAWASSEE,6927 Silver Star Rd,Orlando,FL,32818,(407) 295-1001
-81.507462,28.551365,GOOD HOMES,9010 W Colonial Dr,Ocoee,FL,34761,(407) 253-4379
-81.751548,28.591558,SOUTHERN BREEZE,901 N Us Hwy 27,Minneola,FL,34715,(352) 241-6795
-81.453128,28.577491,SILVER STAR,5218 Silver Star Rd,Orlando,FL,32808,(407) 298-5950
-81.705571,28.54723,HANCOCK,2640 E Highway 50,Clermont,FL,34711-6034,(352) 242-4731
-81.391743,28.661425,ALTAMONTE SPGS,224 W Fl-436,Altamonte Springs,FL,32714,(407) 862-4777
-81.464259,28.552641,PINE HILLS,6195 W Colonial Dr,Orlando,FL,32808,(407) 299-3920
-81.744364,28.547484,CLERMONT,799 E Highway 50,Clermont,FL,34711-3187,(352) 394-1923
-81.784662,28.822005,TAVARES-US 441,10420 Us Hwy 441 S,Leesburg,FL,34788,(352) 343-4121
-81.395156,28.605507,LEE ROAD,1028 W Lee Rd,Orlando,FL,32810,(407) 647-1615
-81.415653,28.576735,JYP & SILVER STA,2503 N John Young Pkwy,Orlando,FL,32804,(407) 299-4291
-81.360438,28.697519,SR 434,900 W State Route 434,Longwood,FL,32750-5193,(407) 261-0195
-81.415035,28.55332,PARK WOOD,3005 West Colonial Drive,Orlando,FL,32808,(407) 286-1449
-81.363154,28.626615,MAITLAND,228 Orlando Avenue So,Maitland,FL,32751,(407) 599-2944
-81.351102,28.756756,LAKE MARY,4210 W Lake Mary Blvd,Lake Mary,FL,32746-3349,(407) 333-3368
-81.3453,28.663729,FERN PARK,1415 E State Rd,Fern Park,FL,32730,(407) 831-1636
-81.358649,28.786838,INTERNATIONAL PK,2960 International Pkwy,Lake Mary,FL,32746,(407) 444-5278
-81.366653,28.592665,HOLLIEANNA*STORE,1302 W Fairbanks Ave,Winter Park,FL,32789,(407) 622-1359
-81.66621,28.931522,UMATILLA,400 Hatfield Dr,Umatilla,FL,32784,(352) 669-2442
-81.327561,28.700479,LONGWOOD,290 N Hwy 17 And 92,Longwood,FL,32750,(407) 834-3770
-81.397699,28.531839,GORE ST.,830 S Orange Blossom Trail,Orlando,FL,32805,(407) 648-1846
-81.323333,28.635005,"CASSELBERRY W*M,",1241 SR 436 (Walmart),Casselberry,FL,32707,(407) 657-5913
-81.320172,28.632852,CASSELBERRY,1291 Sr 436,Casselberry,FL,32707,(407) 679-0661
-81.334623,28.812437,HICKMAN,150 Hickman Dr,Sanford,FL,32771,(407) 321-5837
-81.348792,28.553767,E COLONIAL,2701 E Colonial Dr,Orlando,FL,32803,(407) 898-6879
-81.319986,28.601045,LAKEMONT,2472 Aloma Ave,Winter Park,FL,32792,(407) 673-0550
-81.37669,28.514429,ORANGE AVENUE,2504 S Orange Ave,Orlando,FL,32806,(407) 841-9472
-81.304948,28.596753,WINTER PARK,3162 University Blvd,Winter Park,FL,32792,(407) 679-5564
-81.286102,28.757496,SANFORD,3785 Orlando Dr,Sanford,FL,32773-5600,(407) 330-9433
-81.269069,28.64997,RED BUG,1325 Tuskawilla Rd,Winter Springs,FL,32708,(407) 699-8855
-81.261957,28.696988,WINTER SPRINGS,1200 E Hwy 434,Winter Springs,FL,32708,(407) 365-5700
-81.287366,28.568811,ORLANDO-GOLDENRD,7409 E Colonial Dr,Orlando,FL,32807,(407) 281-6606
-81.273652,28.81108,FRENCH AVE,112 French Ave,Sanford,FL,32771,(407) 330-0706
-81.260531,28.619122,ALOMA WALK,2849 Clayton Crossing Way,Oviedo,FL,32765,(407) 695-0172
-81.309824,28.524702,CURRY FORD,1505 S Semoran Blvd,Orlando,FL,32807-2919,(407) 207-5635
-81.28521,28.537369,LAKE UNDERHILL,451 S Goldenrod Rd,Orlando,FL,32822-8121,(407) 381-3888
-81.310885,28.50317,LAKE FRED,4066 S Semoran Blvd,Orlando,FL,32822,(407) 286-0405
-81.280155,28.872941,DEBARY,410 Deltona Blvd,Deltona,FL,32725-8077,(386) 860-2219
-81.227944,28.654145,OVIEDO CROSSINGS,1920 W Sr 426,Oviedo,FL,32765,(407) 365-7641
-81.309352,28.481604,HOFFNER,5685 South Semoran Blvd,Orlando,FL,32822,(407) 275-3827
-81.298236,28.921265,ORANGE CITY,2406 Enterprise Rd,Orange City,FL,32763,(386) 775-7774
-81.234832,28.570266,UNION PARK RELO,10401 E Colonial Dr,Orlando,FL,32817,(407) 282-5575
-81.207595,28.64083,434 & CHAPMAN,2050 Alafaya Trl,Oviedo,FL,32765,
-81.212112,28.786416,SANFORD-46,4189 E Sr 46,Sanford,FL,32771,
-81.208303,28.599912,UCF,4294 N Alafaya Tr,Orlando,FL,32817,(407) 658-0579
-80.868239,28.665841,MIMS,4305 West Main Street,Mims,FL,32754,(321) 264-9004
-80.842644,28.619143,GARDEN ST,3290 Garden St,Titusville,FL,32796,(321) 264-0039
-80.847325,28.55267,CHENEY HWY,3445 Ronald Mcnair Way,Titusville,FL,32780,(321) 268-5111
-80.797795,28.568538,S. WASHINGTON,3835 S Washington Ave,Titusville,FL,32780,(321) 269-0252
-81.129263,28.559685,BITHLO,16920 E Colonial,Orlando,FL,32820,(407) 568-5085
-81.180815,28.656619,OVIEDO,1605 E Mitchell Hammock Rd,Oviedo,FL,32765,(407) 977-9086
-81.15005,28.538107,AVALON PKWY & TI,401 S Avalon Park Blvd,Orlando,FL,32828,(407) 382-6133
-81.164827,28.872668,HOWLAND & 415,131 Howland Blvd,Deltona,FL,32738,(407) 302-0100
-81.197,28.566176,WOODBURY,12301 E Colonial Dr,Orlando,FL,32826,(407) 208-0441
-80.915529,29.00497,NEW SMYRNA BEACH,1704 S Dixie Fwy,New Smyrna Beach,FL,32168,(386) 428-5115
-81.202638,28.546324,WATERFORD LAKES,12300 Lake Underhill Rd,Orlando,FL,32828,(407) 382-4490
-81.218233,28.56581,LAKE BERGE,11250 E COLONIAL DR (Walmart),Orlando,FL,32817,(407) 273-3413
-80.943292,29.013691,SUGAR MILL,1842 State Road 44,New Smyrna Beach,FL,32168,(386) 423-3444
-80.99264,29.01343,NEW SMYRNA @ I-9,3181 Sr 44,New Smyrna Beach,FL,32168,(386) 427-2753
-81.189842,28.925222,HOWLAND BLVD,2190 Howland Blvd,Deltona,FL,32738,(386) 532-0046
-81.23971,28.883245,DELTONA NORMANDY,1241 E Normandy Blvd,Deltona,FL,32725,
-81.241792,28.509515,CURRY FORD & DEA,10026 Curry Ford Rd,Orlando,FL,32829,(407) 382-5720
-81.246539,28.478648,LEE & ECO,5785 S. Econlockhatchee Trail,Orlando,FL,32829,(407) 477-5874
-81.252394,28.950626,HOWLAND,2900 Halifax Crossing Boulevard,Deltona,FL,32725,(386) 532-1480
-81.272524,28.462001,VISTA LAKE,7055 Narcoossee Rd,Orlando,FL,32829,(407) 218-4031
-81.034067,29.104431,TAYLOR ROAD,1676 Taylor Rd,Port Orange,FL,32128,(386) 756-6224
-81.006235,29.126298,PORT ORANGE,3816 S Nova Rd,Port Orange,FL,32127-4949,(386) 756-4345
-81.298804,28.981691,SOUTH DELAND,2697 Us 17/92,Deland,FL,32720,(386) 738-7595
-100.903769,29.380093,DEL RIO-AVE F,1701 Veterans Blvd,Del Rio,TX,78840-3346,(830) 774-4505
-100.887024,29.369649,DEL RIO NO. 2,1504 E Gibbs,Del Rio,TX,78840,(830) 703-8594
-99.778155,29.212629,UVALDE-MAIN,510 E Main Street,Uvalde,TX,78801-5715,(830) 278-1185
-99.123122,29.348056,"HONDO, HWY 90",269 Us Hwy 90 E,Hondo,TX,78861,(830) 426-5300
-98.880688,29.353793,CASTROVILLE,801 Hwy 90 W,Castroville,TX,78009,(830) 538-2000
-98.895546,29.131921,"DEVINE, I-35/HWY",1009 East Hondo Street,Devine,TX,78016,(830) 665-4900
-98.789978,29.228559,LYTLE,14830 Lytle Sommerset Rd,Lytle,TX,78052,(830) 709-2900
-98.777954,29.421112,POTRANCO,14250 Potranco Road,San Antonio,TX,78245,(210) 679-0326
-98.737773,29.374256,HWY90 & MONTGOME,12328 Us Hwy 90 W,San Antonio,TX,78245,(210) 905-4086
-98.748337,29.428805,REID SAN ANTONIO,12844 Potranco Road,San Antonio,TX,78245,(210) 964-0360
-98.774176,29.518639,SAN ANTONI,14060 W Fm471,San Antonio,TX,78254,(325) 274-4248
-98.705978,29.403413,LOOP 1604,2512 W Loop 1604 S,San Antonio,TX,78245,(210) 645-7271
-98.730272,29.460339,WISEMAN BLVD,5402 Wiseman,San Antonio,TX,78251,
-98.70931,29.435331,SAN ANTONI,San Antonio Potranco 1604,San Antonio,TX,78245,(210) 682-7400
-98.73326,29.486252,ALAMO RANCH,Alamo Pkwy,San Antonio,TX,78253,(210) 569-0551
-98.692275,29.461415,SEA WRLD/HWY 151,10950 Hwy 151 Seaworld,San Antonio,TX,78251-1683,(210) 522-9494
-98.710743,29.496827,CULEBRA RO,11031 Culebra Rd,San Antonio,TX,78254,(210) 688-9878
-98.663432,29.444305,HWY 151/POTRANCO,8819 State Hwy 151,San Antonio,TX,78251,(210) 647-4445
-98.650524,29.41711,MARBACH/LOOP410,1733 Sw Loop 410,San Antonio,TX,78227-1601,(210) 675-8100
-98.638262,29.381204,SAN ANTONIO/VALL,330 Valley Hi Dr,San Antonio,TX,78227-4602,(210) 673-6843
-98.695732,29.515957,SHAENFIELD AT LO,8107 Nw Loop 1604,San Antonio,TX,78254,(210) 688-0990
-98.622428,29.33976,410-PEARSALL RD,6350 Pearsall Rd,San Antonio,TX,78242,(210) 623-8000
-98.667567,29.484553,CULEBRA-TEZEL,9358 Culebra Road,San Antonio,TX,78251,(210) 680-4675
-98.629639,29.406651,SAN AN-M-DR-WEST,6921 Military Dr W,San Antonio,TX,78227-3619,(210) 674-6321
-98.648896,29.468812,SAN ANT-CULEBRA,8349 Culebra Road,San Antonio,TX,78251-1602,(210) 522-9292
-98.630066,29.45181,410-CULEBRA,7212 Nw Loop 410,San Antonio,TX,78245,(210) 523-9961
-98.43353,29.348215,"SAN ANTONIO, SE",3302 SE MILITARY (Walmart),San Antonio,TX,78223,(210) 337-1100
-98.477363,29.323028,"SAN ANTONIO, ROO",5346 Roosevelt Avenue,San Antonio,TX,78214,(210) 924-0707
-98.412922,29.21981,I 37   LOOP,20203 Ih 37 S,San Antonio,TX,78264,(210) 760-6462
-98.480584,29.354962,SAN ANTONIO-ROOS,3502 Roosevelt Avenue,San Antonio,TX,78214-2845,(210) 927-5273
-98.45639,29.375079,SAN ANT-SOUTHCRS,2402 E Southcross,San Antonio,TX,78223-2206,(210) 533-8771
-98.387424,29.397798,"SA, RIGSBY&41O",5304 Rigsby Avenue,San Antonio,TX,78222,(210) 333-3444
-98.504255,29.342271,SAN ANTONIO-PLSN,3701 Pleasanton Rd,San Antonio,TX,78221-2815,(210) 927-9444
-98.478404,29.220875,"SAN ANTONIO, LOO",20115-2 Us Highway 281 S,San Antonio,TX,78221,(210) 348-3724
-98.504529,29.366129,1643 PLEASANTON,1643 Pleasanton Road,San Antonio,TX,78221,(210) 927-4000
-98.461525,29.400894,NEW BRAUNFELS,1819 S New Braunfels,San Antonio,TX,78210-3013,(210) 534-9200
-98.532381,29.318672,LOOP 410 SAN ANT,10042 S Zarzamora Street,San Antonio,TX,78224,(210) 964-0649
-98.527975,29.357075,SA MILITARY,2135 Sw Military,San Antonio,TX,78224-1402,(210) 924-7379
-98.404958,29.430837,"SA, WW WHITE",102 S Ww White,San Antonio,TX,78219,(210) 337-4571
-98.551591,29.33599,PALO ALTO,8815 Poteet Jourdanton Fwy,San Antonio,TX,78224,(210) 251-4440
-98.52461,29.386084,NOGALITOS,3033 Nogalitos,San Antonio,TX,78225-1926,(210) 927-3335
-98.550391,29.357837,"SA, SW MILITARY",3231 Sw Military,San Antonio,TX,78211,(210) 924-1884
-98.449802,29.438467,SA PAN AM EXPY,2646 N Panamer Expry,San Antonio,TX,78208-1831,(210) 224-8037
-98.506525,29.411839,S LAREDO SAN ANT,1330 S Laredo,San Antonio,TX,78207,(210) 226-6740
-98.487644,29.423837,"SA, ALAMO PLAZA",101 Alamo Plaza,San Antonio,TX,78205-2601,(210) 226-3800
-98.360402,29.448281,I-10 AND F,1852 N Foster Road,Converse,TX,78109,(726) 999-3732
-98.501629,29.427022,SAN ANTONIO-I-10,703 W Houston Ave,San Antonio,TX,78207-3017,(210) 271-3565
-98.527537,29.41996,GUADPE/ZARZAMORA,826 South Zarzamora Street,San Antonio,TX,78207,(210) 438-1696
-98.499154,29.440025,SN ANT-SAN PEDRO,721 San Pedro Ave,San Antonio,TX,78212-4611,(210) 227-5007
-98.557572,29.397579,"SA,GN'L MCMULLEN",1846 S Gen Mcmullen,San Antonio,TX,78226,(210) 436-0006
-98.463164,29.469971,SN ANTON-BROADWY,4720 Broadway Street,San Antonio,TX,78209-6216,(210) 828-4802
-98.52684,29.44488,CULEBRA/ELMENDOR,1142 Culebra Rd,San Antonio,TX,78201,(210) 733-8480
-98.362466,29.480104,SAN ANTONIO,6363 Fm 78,San Antonio,TX,78219,(210) 662-4855
-98.549199,29.429916,COMMERCE S/A,4422 W Commerce St,San Antonio,TX,78237-1669,(210) 438-5020
-98.401666,29.484756,SAN ANTON-RITIMN,4619 Rittiman Rd,San Antonio,TX,78218-4629,(210) 656-6791
-98.575855,29.405691,S A HWY 90,2315 Sw 36th St,San Antonio,TX,78237,(210) 431-7900
-98.289402,29.464254,I-10/LOOP 1604,3835 East Loop 1604 North,San Antonio,TX,78109,(210) 666-6565
-98.31445,29.478173,"CONVERSE, TX",5439 Fm 1516 N,Converse,TX,78109,(210) 774-5818
-98.434881,29.492727,"SAN ANTONIO, AUS",1450 Austin Hwy,San Antonio,TX,78209,(210) 824-4129
-98.507585,29.473907,BLANCO RD SAN AN,2922 Blanco Rd,San Antonio,TX,78212-1813,(210) 736-3636
-98.555025,29.457779,BANDERA AT EMBAS,926 Bandera Road,San Antonio,TX,78228,(210) 438-9030
-98.569864,29.449819,36 AT CULEBRA,3515 Culebra Road,San Antonio,TX,78228,(210) 435-5497
-98.37294,29.509879,SN ANTONIO/WALZE,5700 Walzem Rd,San Antonio,TX,78218,(210) 726-5622
-98.545982,29.483944,SAN AN-FREDER,3971 Fredericksburg Road,San Antonio,TX,78201-3231,(210) 734-7688
-98.499871,29.507011,SAN PEDRO S/A,6967 San Pedro Ave,San Antonio,TX,78216-6206,(210) 342-6811
-98.462128,29.519821,"SA, BROADWAY&410",8631 Broadway Street,San Antonio,TX,78217,(210) 822-4714
-98.308761,29.512033,FM 78/FM 1516,9151 Fm 78,Converse,TX,78109,(210) 566-9922
-98.130074,29.356922,LA VERNIA,14091 Us Hwy 87 W,La Vernia,TX,78121,(210) 728-4594
-98.331934,29.535313,CONVERSE/KITTYHA,7975 Kitty Hawk Road,Converse,TX,78109-1676,(210) 659-7513
-98.604374,29.466862,SAN ANT/INGRAM,6069 Ingram Road,San Antonio,TX,78238-4403,(210) 647-1700
-98.410596,29.544181,SN ANTONIO-BEITL,11482 Perrin Beitel Rd,San Antonio,TX,78217,(210) 655-1995
-98.535593,29.51422,SA VANCE JACKSON,4331 Vance Jackson Road,San Antonio,TX,78230-5320,(210) 341-7886
-98.366964,29.545837,35-O'CONNOR,11710 Interstate 35 N,San Antonio,TX,78233,(210) 637-1611
-98.168397,29.156108,FLORESVILLE,530 10th St,Floresville,TX,78114-3126,(830) 393-9393
-98.59433,29.485495,"SAN ANTONIO, 410",5503 Nw Loop 410,San Antonio,TX,78238,(210) 684-3600
-98.584983,29.503991,BABCOCK WURZ SA,7267 Wurzbach,San Antonio,TX,78229,(210) 692-9886
-98.467961,29.553331,12200 JONE,12203 Jones Maltsberger Road,San Antonio,TX,78247,(210) 491-8833
-98.508677,29.547021,SN ANTON-BLANCO,11700 Blanco Rd,San Antonio,TX,78216-2404,(210) 344-9709
-98.292014,29.548336,UNIVERSL-PAT,713 Pat Booker Rd,Universal City,TX,78148-4127,(210) 658-1551
-98.385719,29.568003,SAN ANTONIO/NACO,13919 Nacogdoches,San Antonio,TX,78217-1283,(210) 654-6184
-98.561896,29.529585,"SA,I-10&WURZBACH",9600 Interstate 10 Nw,San Antonio,TX,78230,(210) 593-0344
-98.441603,29.578984,1000 OAKS/GAS,15011 Jones Maltsberger Road,San Antonio,TX,78247,(210) 545-1780
-98.353839,29.590291,LOOP 1604,16522 Nacogdoches Road,San Antonio,TX,78233,(210) 650-0130
-98.475965,29.585626,SN ANTON-SN PDRO,15715 San Pedro,San Antonio,TX,78232-3726,(210) 496-1294
-98.419293,29.599721,"SAN ANTONIO, BUL",3806 N Loop 1604 E,San Antonio,TX,78247,(210) 497-4600
-98.545321,29.574215,"SA,MILTRY&HUEBNR",14630 Huebner Rd,San Antonio,TX,78230,(210) 492-0002
-98.638593,29.51945,BANDERA & GILBEA,7663 Guilbeau Road,San Antonio,TX,78250-3226,(210) 647-3588
-98.61496,29.54367,BABCOCK/PRUE,6370 Babcock Road,San Antonio,TX,78249,(210) 558-4588
-98.58954,29.564127,SAN ANT- DEZAVAL,5235 De Zavala Dr,San Antonio,TX,78249,(210) 696-1659
-98.277101,29.598707,SCHERTZ/I-35,17480 I 35 N,Schertz,TX,78154,(210) 651-9476
-98.507765,29.607085,BLANCO & 1604,18146 Blanco Rd,San Antonio,TX,78232,(210) 408-7400
-98.456176,29.635601,HWY 281 EV,20750 Hwy 281 N,San Antonio,TX,78259,(210) 403-9066
-98.664396,29.550285,"SAN ANTONIO, STO",11611 Bandera Rd,San Antonio,TX,78250,(210) 521-2095
-98.629526,29.588428,1604 BABCO,7257 N Loop 1604,San Antonio,TX,78256,(210) 877-2801
-98.489879,29.642402,"SAN ANTONIO, STO",19915 Stone Oak Parkway,San Antonio,TX,78258,(210) 490-2988
-98.240091,29.624202,"I-35/FM 1103, SC",21600 Ih-35 N,Schertz,TX,78108,(830) 312-5322
-98.604634,29.615513,THE RIM,18503 Ih 10 West,San Antonio,TX,78257,(210) 561-9900
-98.452488,29.693459,281 BULVERDE,26523 N Us Hwy 281,San Antonio,TX,78260,(956) 667-1713
-98.634366,29.676004,RALPH FAIR/I-10,25200 Interstate 10 W Lot 2,San Antonio,TX,78257,(210) 687-1232
-98.155985,29.676308,"NEW BRAUNFELS, L",4142 Loop 337,New Braunfels,TX,78130,(830) 620-7747
-97.460218,29.516505,GONZALES/HWY 90,309 W Highway 90a,Gonzales,TX,78629,(830) 672-2672
-97.942743,29.569572,COURT ST. AT HWY,1388 E Ct,Seguin,TX,78155,(830) 379-4492
-97.99434,29.582128,SEGUIN/I-10,1811 I 10 W,Seguin,TX,78155,(830) 379-0076
-97.288783,29.093797,CUERO 2,104 E Broadway St,Cuero,TX,77954,(361) 275-9886
-96.939552,29.462662,HALLETTSVILLE,1628 N Texana St,Hallettsville,TX,77964,(361) 645-7273
-97.103806,29.695199,"FLATONIA, I-10/6",709 N Lagrange,Flatonia,TX,78941,(361) 865-3730
-96.77712,29.692953,WEIMAR STO,722 S Eagle St,Weimar,TX,78962,(979) 725-1000
-96.277478,29.206839,EL CAMPO,1240 N Mechanic,El Campo,TX,77437-2614,(979) 543-7054
-96.097786,29.322617,WHARTN-RICHMOND,1404 N Richmond,Wharton,TX,77488-3018,(979) 532-8884
-96.076928,29.392143,WHARTON TRAVEL C,350 E Walnut St,East Bernard,TX,77435,(979) 532-1117
-95.834588,29.40203,NEEDVILLE,2727 School St.,Needville,TX,77461,
-96.538396,29.691252,COLUMBUS- I-10,2421 Hwy 71 S,Columbus,TX,78934-9205,(979) 732-8293
-95.43232,29.181731,ANGLETON-VELASKO,1716 N Velasco,Angleton,TX,77515-3032,(979) 848-0277
-95.432479,29.439282,IOWA COLONY,3215 Meridiana Pkwy,Rosharon,TX,77583,(281) 601-4071
-95.528478,29.514339,SIENNA,4525 Sienna Parkway,Missouri City,TX,77459,(904) 654-1478
-95.516218,29.533427,MISSOURI CITY,9934 Highway 6,Missouri City,TX,77459,(281) 431-3048
-95.401678,29.483156,MANVEL,17213 Hwy 6,Manvel,TX,77578,(281) 653-7546
-95.697739,29.551002,SANSBURY/CRABB,1125 Crabb River Road,Richmond,TX,77406,(281) 239-0544
-95.364223,29.469477,MERIDIANA MANVEL,19706 Morris Ave,Manvel,TX,77578,
-95.565604,29.568067,HWY 6/FM1092,6129 Hwy 6 S,Missouri City,TX,77459,(281) 208-1428
-95.751816,29.543246,BRAZOS TOWN CTR,24501 Sw Freeway,Rosenberg,TX,77471,(281) 239-2233
-95.527325,29.583146,MISSOURI CITY,1605 Cartwright Rd,Missouri City,TX,77489,(281) 835-5223
-95.602206,29.591637,SUGARLD-HWY 65,3401 Hwy 6,Sugar Land,TX,77478,(281) 980-3553
-95.807801,29.533059,HWY 59 / HWY 36,3417 W 1st,Rosenberg,TX,77471,(281) 239-5384
-95.6322,29.60144,1460 HWY 6,1460 Hwy 6,Sugar Land,TX,77479,(281) 980-0722
-95.789467,29.560025,ROSENBERG-AVE H,3627 Ave H,Rosenberg,TX,77471-2835,(281) 239-8373
-95.46972,29.589857,SOUTH POST OAK,16327 S Post Oak Rd,Houston,TX,77053,(346) 849-1025
-95.3909,29.556912,HWY 288 @ FM 518,2815 Business Center Drive,Pearland,TX,77584,(713) 436-9095
-95.644528,29.613427,345 HWY 6,345 HWY 6 (Walmart #2993),Sugar Land,TX,77478,(281) 491-3235
-95.382598,29.558102,HWY 288 AT FM 51,10505 W BROADWAY ST (Walmart #3572),Pearland,TX,77584,(713) 436-6334
-95.569672,29.620703,HWY 90A AND PROM,3643 Main Street,Stafford,TX,77477,(281) 499-0395
-95.246367,29.400727,ALVIN-FM 1462,1103 Fm 1462,Alvin,TX,77511-4053,(281) 585-8848
-95.619092,29.634616,ELDRIDGE,1053 Eldridge,Sugar Land,TX,77478,(281) 565-4411
-95.348173,29.55959,"PEARLAND, FM 518",8303 West Broadway Street,Pearland,TX,77581,(281) 412-6533
-95.230702,29.421904,"ALVIN,TX WALMART",400 S BYPASS 35 (Walmart),Alvin,TX,77511,(281) 585-6400
-95.573029,29.643987,WM-STAFFORD,11210 W AIRPORT (Walmart),Stafford,TX,77477,(832) 351-3015
-95.651093,29.642814,VOSS SUGARLAND,11825 Hwy 6,Sugar Land,TX,77498,(281) 262-0680
-95.46563,29.625586,S. POST OAK AT W,13882 S Post Oak,Houston,TX,77045,(713) 723-0972
-95.744407,29.624076,PECAN GROVE,2025 Fm 359,Richmond,TX,77469,(832) 595-1250
-95.537992,29.64444,BELTWAY 8 AT W.,10890 S Sam Houston West Pkwy,Houston,TX,77031,(713) 774-5778
-95.224047,29.421114,"ALVIN, TX",2150 E. State Hwy 6,Alvin,TX,77511,(281) 667-4912
-95.42025,29.613253,HOUSTON-ALMEDA,13402 Almeda Rd,Houston,TX,77053,(713) 434-2574
-95.566789,29.654568,HOU-BELLFORT,10638 W Bellfort,Houston,TX,77099-4747,(281) 498-8910
-95.508021,29.654833,11311 FONDREN RD,11311 Fondren Rd,Houston,TX,77035,(713) 723-9100
-95.709958,29.65182,GRAND PKWY & W.,10513 West Grand Parkway South,Richmond,TX,77407,(281) 494-0503
-95.385648,29.614852,HWY 288 AT ALMED,2503 Almeda-Genoa Road,Houston,TX,77047,(713) 413-1570
-95.352573,29.599786,BELTWAY 8 & CULL,4121 South Sam Houston East Parkway,Houston,TX,77048,(713) 264-8031
-95.561339,29.6741,BELTWAY 8 AT BIS,10415 Bissonnet Street,Houston,TX,77099,(281) 495-0560
-95.644237,29.678136,STANBRIDGE,9310 Hwy 6 S,Houston,TX,77083,(832) 328-1890
-95.561351,29.67924,(WM) BELTWAY 8 A,9460 W SAM HOUSTON PKWY S (Walmart),Houston,TX,77099,(281) 568-8920
-95.286738,29.567684,PEARLAND,2120 N Main St,Pearland,TX,77581-3310,(281) 485-6735
-95.528089,29.677449,GESSNER/BISSONET,8520 Bissonnet Street,Houston,TX,77074,(713) 981-4750
-95.742143,29.663982,GRAND PARKWAY AN,7805 W Grand Parkway South,Richmond,TX,77407,(832) 595-8650
-95.49407,29.677394,BRAESWOOD,5911 S Braeswood Blvd,Houston,TX,77096-3813,(713) 721-4925
-95.461482,29.669988,SOUTH POST OAK A,10315 S Post Oak,Houston,TX,77035,(713) 726-8467
-95.567756,29.688422,HOUSTON-BEECHNUT,10777 Beechnut Street,Houston,TX,77072-4416,(281) 498-5011
-95.621203,29.689042,BEECHNUT AT ELDR,13532 Beechnut Street,Houston,TX,77072,(281) 561-7702
-95.534879,29.690302,GESSNER @ HWY 59,8010 S Gessner,Houston,TX,77036,(713) 270-1900
-95.587035,29.703265,HOU-KIRKWOOD,11825 Bellaire Boulevard,Houston,TX,77083,(281) 495-0120
-95.643369,29.702446,HOUSTON-HWY 6,6901 Hwy 6,Houston,TX,77083-3303,(281) 568-8653
-95.556008,29.703992,"HOU, 8 & BELLAIR",6707 W Sam Houston Pky S,Houston,TX,77036,(713) 772-3332
-95.425979,29.678391,LOOP 610 & MAIN,9805 S Main,Houston,TX,77025,(713) 569-7622
-95.458182,29.688875,"HOU,BEECHNUT/610",4643 Beechnut Street,Houston,TX,77096,(713) 664-9644
-95.687218,29.702868,FM 1464 @ ORCHID,7003 Fm 1464 Rd,Richmond,TX,77407,(281) 980-0032
-95.189115,29.509229,FM 518 AT FM 528,100 W Parkwood Ave,Friendswood,TX,77546,(281) 482-6588
-95.402559,29.678332,HOUSTON-S. LOOP,1619 S Loop W,Houston,TX,77054-4814,(713) 569-7622
-95.203046,29.530573,FRIENDSWD-FM 528,302 S Friendswood Dr,Friendswood,TX,77546-3904,(281) 996-8284
-95.355821,29.658811,HOUSTON-CULLEN,9126 Cullen St,Houston,TX,77051-2818,(713) 733-3227
-95.266426,29.5996522,PEARLAND PKWY,10515 Pearland Parkway,Houston,TX,77075,(832) 500-8069
-95.774638,29.690155,GRND PKWY@BELLA,5660 W GRAND PARKWAY (Walmart),Richmond,TX,77406,(281) 239-2226
-95.478112,29.706076,HOUSTON-5512 BEL,5512 Bellaire Boulevard,Houston,TX,77081-5616,(713) 661-2159
-95.539422,29.717321,GESSNER AT HARWI,5800 S Gessner Rd,Houston,TX,77036,(713) 271-0600
-95.519887,29.722028,CHEV-FONDREM-W.P,3941 Fondren Road,Houston,TX,77063,(713) 781-5835
-95.145774,29.478285,"LEAGUE CITY, TX",4590 W League City Pkwy,League City,TX,77573,(409) 312-9297
-95.3565,29.679833,610 CULLEN CHEVR,7410 Cullen Boulevard,Houston,TX,77021,(713) 738-4380
-95.606859,29.735805,WESTMER/DAIRYASH,12625 Westheimer Dr,Houston,TX,77077,(281) 493-6779
-95.564531,29.736284,WESTHEIMER @ BEL,10703 Westheimer,Houston,TX,77042,(713) 780-1103
-95.411642,29.705627,HOUSTON-HOLCOMB,2249 W Holcombe Blvd,Houston,TX,77030-2007,(713) 668-5882
-95.214737,29.583003,SCARSDALE BEAMER,10802 Scarsdale Blvd,Houston,TX,77089,(832) 415-1628
-95.815704,29.697748,SPRING GREENKATY,25238 Farm To Market 1093,Katy,TX,77494,(281) 984-2071
-95.53552,29.736902,HOU-WESTHEIMER,9601 1/2 Westheimer Rd,Houston,TX,77063-3204,(713) 789-0082
-95.643608,29.739675,HWY6 PIPING ROCK,2303 Hwy 6 S,Houston,TX,77077,(281) 493-2019
-95.227933,29.601835,CHEVRON-8-BEAMER,11101 S Sam Houston Pky,Houston,TX,77089,(281) 922-4455
-95.484723,29.731995,RICHMOND AT FOUN,6000 Richmond Ave,Houston,TX,77057,(713) 781-8085
-95.77805,29.716436,FRY AT GRAND PKW,7104 S Fry Rd,Katy,TX,77494,(281) 693-7110
-95.502541,29.738049,WESTHEIMER &VOSS,7606 Westheimer,Houston,TX,77057,(713) 785-7606
-95.572655,29.746922,HOU-WILCRST,1920 Wilcrest,Houston,TX,77046,(915) 440-3674
-94.825848,29.290891,GALVESTON-BROAD,5223 Broadway Avenue J,Galveston,TX,77551,(409) 974-4364
-94.826416,29.267489,61ST & SEAWALL,2912 61st St,Galveston,TX,77551-2004,(409) 744-5214
-94.980858,29.358876,I-45 AT 519,2300 Gulf Freeway,La Marque,TX,77568,(409) 935-0212
-94.949705,29.394889,TEXAS CITY-PALME,3545 Palmer Hwy,Texas City,TX,77590-6513,(409) 948-4512
-94.771562,29.305098,SEAWALL BLVD,517 Seawall Blvd,Galveston,TX,77550,(409) 750-9945
-95.034504,29.400986,FM1764 LA MARQUE,2701 Fm 1764,La Marque,TX,77568,
-95.037567,29.402028,6410 I-45,6410 I-45 SOUTH (Walmart #529),La Marque,TX,77568,(409) 986-9060
-95.090753,29.373702,SANTA FE/HWY 6,12400 Hwy 6,Santa Fe,TX,77510,(281) 378-3452
-95.077011,29.44803,DICKINSON-I-45,3706 Gulf Freeway,Dickinson,TX,77539-6318,(281) 337-3390
-94.995081,29.499685,BACLIFF,4505 Hwy 146,Bacliff,TX,77518,(281) 339-5949
-95.087924,29.466389,I-45 AT FM 646,3140 Gulf Freeway S,League City,TX,77573,(281) 614-1968
-95.089744,29.470211,(WM) I-45 AT FM,1701 W FM 646 (Walmart),League City,TX,77573,(281) 534-8687
-95.043882,29.5042,SH 96 & SOUTH SH,2550 E League City Parkway,League City,TX,77573,(281) 334-8947
-95.094387,29.507362,HWY 3 AT FM 518,102 Hwy 3 South,League City,TX,77573,(281) 557-3257
-95.115305,29.503812,LEAGUE CITY-GULF,113 N Gulf Fwy,League City,TX,77573,(281) 332-3345
-95.062091,29.542134,SOUTH SHORE HARB,3022 Marina Bay Dr,League City,TX,77573,(281) 334-7796
-95.027683,29.576126,SEABROOK R,2800 Bayport Blvd,Seabrook,TX,77586,(281) 942-9056
-95.100907,29.547373,NASA   NAS,1320 Nasa Parkway,Nassau Bay,TX,77058,(281) 957-9446
-95.126369,29.551504,S.H. 3 AND BAY A,505 Bay Area Blvd,Houston,TX,77058,(281) 486-1027
-95.146206,29.538302,HOUSTON 1453 W.,1453 W Bay Area Blvd,Webster,TX,77598-3831,(281) 338-2077
-95.107264,29.577628,BAY AREA-COR PLZ,2727 Bay Area Blvd,Houston,TX,77058,(281) 461-1585
-95.142166,29.560298,EL DORADO BLVD,534 1/2 Eldorado Blvd,Webster,TX,77598-2202,(281) 488-3326
-95.159381,29.5518,20810 GULF FREEW,150 W EL DORADO BLVD (Walmart #1062),Friendswood,TX,77546,(281) 280-8180
-95.027669,29.651848,LA PORTE/LA PORT,1102 S 8th St,La Porte,TX,77571-6202,(281) 471-8515
-95.192327,29.592613,I-45 AT ASTORIA,14270 Gulf Freeway,Houston,TX,77034,(281) 484-7113
-95.093525,29.664455,LA PORTE-SPENCER,9323 Spencer Hwy,La Porte,TX,77571,(325) 289-0543
-95.168388,29.63122,"PASADENA, GENOA-",2001 Genoa Red Bluff Road,Pasadena,TX,77505,(281) 487-4572
-95.100102,29.666851,DEER PARK (WM),9025 SPENCER HWY (Walmart #5116),Deer Park,TX,77536,(281) 478-0460
-95.123825,29.664131,DEER PARK,7437 Spencer Hwy,Pasadena,TX,77505,(281) 479-6048
-95.161293,29.646591,FAIRMONT PARKWAY,5200 FAIRMONT PKWY (Walmart),Pasadena,TX,77505,(281) 487-3001
-95.218795,29.614289,"HOUSTON, FUQUA",11323 Fuqua Street,Houston,TX,77089,(713) 941-1006
-95.172066,29.650138,PASADENA/FAIRMNT,4625 Fairmont Pky,Pasadena,TX,77504-3311,(281) 487-5877
-94.957406,29.730849,BAYTOWN-ALEXNDR,310 N Alexander Dr,Baytown,TX,77520-5805,(281) 427-3851
-95.229044,29.628996,ALAMEDA-GENOA,11695 Gulf Freeway,Houston,TX,77034,(713) 910-5889
-95.09283,29.707375,PASADENA FREEWAY,7005 Hwy 225,Deer Park,TX,77536,(281) 478-5200
-95.23745,29.630831,(WM) I-45 AT ALM,9598 ROWLETT ROAD (Walmart),Houston,TX,77034,(713) 946-4995
-95.123287,29.699174,1305 CENTER,1305 Center,Deer Park,TX,77536-4169,(281) 478-6980
-95.155762,29.684904,RED BLUFF,3815 Red Bluff Road,Pasadena,TX,77503-3601,(713) 920-2128
-94.980577,29.740305,"BAYTOWN, GARTH/D",1770 Decker Drive,Baytown,TX,77520,(281) 420-3553
-95.194146,29.665441,PASADENA-SPENC,3223 Spencer Hwy,Pasadena,TX,77504-1103,(713) 941-7410
-91.262509,29.683242,BAYOU VISTA-S E,1319 Highway 90 E,Morgan City,LA,70380,(985) 395-5590
-91.197117,29.699128,US HWY 90,6387 Us Highway 90 East,Morgan City,LA,70380,(985) 385-5002
-90.683646,29.5717,U.S. HWY. 90,1540 Grand Caillou Rd,Houma,LA,70363,(985) 868-0696
-90.723724,29.578859,"HOUMA, LA - BARR",3001 Barrow St,Houma,LA,70360,(985) 223-2477
-90.676582,29.593373,PROSPECT ROADOYO,1621 Prospect Rd,Houma,LA,70363-3735,(985) 851-6692
-90.754075,29.610773,"HOUMA, LA-MKL -",1709 Martin Luther King Blvd,Houma,LA,70364,(985) 876-3662
-90.75162,29.626689,HOUMA-WESTPARK,6219 W Park Avenue,Houma,LA,70364,(985) 868-6593
-90.32372,29.468103,"GALLIANO, LA",355 Hwy 3162,Cut Off,LA,70345,(985) 325-3001
-90.779642,29.674347,"GRAY, LA",4202 W Main,Gray,LA,70359-9502,(985) 879-1396
-90.34441,29.548417,CUTOFF-HWY 1,14018 W Main St,Cut Off,LA,70345,(985) 798-7702
-90.552641,29.693301,RACELAND,4850 Highway 1,Raceland,LA,70394,(985) 532-8003
-82.86456,29.493025,CHIEFLND-YOUNG,1415 N Young Blvd,Chiefland,FL,32626-1710,(352) 493-1700
-82.816792,29.613631,TRENTON,209 E Wade St,Trenton,FL,32693,(352) 463-0414
-83.13072,29.636239,CROSS CITY,16228 Sw Highway 19,Cross City,FL,32628-5717,(352) 498-4284
-82.190529,29.2663,I-75 & CR #326,4150 Hwy 326,Ocala,FL,34482,(352) 690-6009
-82.198924,29.21388,OCALA PALMS,2600 Nw 46th Terr,Ocala,FL,34482,(352) 861-0800
-82.180692,29.186811,SR 40,3595 W Silver Springs Blvd,Ocala,FL,34475,(352) 351-3233
-82.14665,29.222684,441/301,3455 N Pine Ave,Ocala,FL,34475,(352) 840-9595
-82.456351,29.385774,WILLISTON,713 W Noble Ave,Williston,FL,32696,(352) 528-3999
-82.168344,29.159932,PADDOCK MALL E,2827 Sw 27th Ave,Ocala,FL,34474,(352) 861-7300
-82.187227,29.14738,BERKSHIRE OAKS,4110 Sw 38th Ct,Ocala,FL,34474,(352) 351-3208
-82.137839,29.168522,PINE STREET,2015 S Pine St,Ocala,FL,34474,(352) 629-4848
-82.091871,29.195007,E SILVER SPRINGS,3215 E Silver Springs Blvd,Ocala,FL,34470,(352) 629-3215
-82.094153,29.163614,OCALA-MARICAMP,3223 Se Maricamp Rd,Ocala,FL,34471,(352) 694-5522
-82.027418,29.117663,SILVER SPRINGS S,7562 Se Maricamp Rd,Ocala,FL,34472,(352) 680-1919
-82.371589,29.603995,WILLISTON,3418 Sw Williston Rd,Gainesville,FL,32608,(352) 373-8783
-82.384161,29.618908,ARCHER ROAD,3826 Sw 40th Blvd,Gainesville,FL,32608,(352) 373-3826
-82.312657,29.652289,GAINESVILLE-UNIV,1030 E University Ave,Gainesville,FL,32601,(352) 376-0830
-82.337366,29.652479,MACS RELO,1206 W University Ave,Gainesville,FL,32601,(352) 376-3040
-82.08658,29.602397,HAWTHORNE,5605 Se Us Hwy 301,Hawthorne,FL,32640,(352) 481-8010
-82.407261,29.65914,NEWBERRY,6003 Newberry Rd,Gainesville,FL,32605,(352) 331-0864
-82.339552,29.679398,NW 13TH STREET,2880 Nw 13th St,Gainesville,FL,32609,(352) 377-7170
-82.493945,29.654321,JONESVILLE,14124 W Newberry Rd,Newberry,FL,32669,(352) 331-1108
-82.441499,29.689636,GAINESVILLE   39,9260 Nw 39th Ave,Gainesville,FL,32606,(352) 374-7736
-82.389627,29.701175,HUNTERS CROSSING,5110 Nw 43rd St,Gainesville,FL,32606,(352) 376-1965
-81.510508,29.442662,CRESCENT CITY,896 N. Summit St.,Crescent City,FL,32112,(386) 219-4600
-81.324789,29.087261,BRANDYWINE,1075 Williamsburg Pl,Deland,FL,32720,(386) 738-5940
-81.60551,29.644963,EAST PALATKA,168 S Us Highway 17,East Palatka,FL,32131-4023,(386) 326-9818
-81.303003,29.054178,DELAND 17/92,102 E International Speedway Blvd,Deland,FL,32724,(386) 738-5688
-81.65782,29.655276,PALATKA,2627 Reid Street,Palatka,FL,32177-2807,(386) 328-2092
-81.216762,29.47617,PALM COAST II,5190 E Hwy 100,Palm Coast,FL,32164,(386) 586-7201
-81.237321,29.550485,PALM COAST WEST,4851 Belle Terre Pkwy,Palm Coast,FL,32137,(386) 445-6156
-81.181009,29.476529,FLAGLER,6030 East Highway 100,Flagler Beach,FL,32136,(386) 439-9070
-81.128546,29.333154,NATIONAL GARDENS,1530 Us Hwy 1,Ormond Beach,FL,32174,(386) 677-2303
-81.887636,29.628262,INTERLACHEN,1154 Highway 20,Interlachen,FL,32148-8516,(386) 684-1551
-81.117973,29.255791,ORMOND BEACH  I-,105 Interchange Blvd,Ormond Beach,FL,32174,(386) 672-3798
-81.211953,29.554329,PALM COAST,2 Old Kings Road,Palm Coast,FL,32137,(386) 445-4059
-81.118146,29.211992,LPGA AND TYMBER,2709 Lpga Blvd.,Daytona Beach,FL,32124,(386) 271-2800
-81.028909,29.267795,BELLAIR,3001 N Atlantic Ave,Daytona Beach,FL,32118,(386) 677-8186
-81.031539,29.228316,HOLLY HILL,151 Ridgewood Ave,Holly Hill,FL,32117,(386) 255-5527
-80.999166,29.165755,S DAYTONA FL-1,2410 S Ridgewood Ave,South Daytona,FL,32119,
-81.083709,29.278287,ORMOND BEACH,100 S Nova Rd # 06001,Ormond Beach,FL,32174,(386) 677-1762
-81.055161,29.19786,GRAND NATIONAL,1376 W International Speedway Blvd,Daytona Beach,FL,32114,(386) 257-2515
-81.032064,29.173324,BEVILLE ROAD,1121 Beville Rd,Daytona Beach,FL,32119-1604,(386) 788-1902
-81.035825,29.142543,MADELINE A,3802 Clyde Morris Blvd,Port Orange,FL,32129,(386) 767-0220
-81.087094,29.168477,SPEEDWAY WEST,2994 Us Hwy 92,Daytona Beach,FL,32124,(386) 258-7459
-99.138002,30.050211,KERRVILLE-HWY 16,600 Sidney Baker,Kerrville,TX,78028-4556,(830) 896-7644
-99.113512,30.069214,CHEV-I-10-HWY16,2128 Sidney Baker,Kerrville,TX,78028,(830) 792-5575
-99.171041,30.062794,"KERRVILLE, HWY 2",1308 Junction Hwy,Kerrville,TX,78028,(830) 895-7707
-98.902595,29.982266,"COMFORT, I-10",43 Us Hwy 87,Comfort,TX,78013,(830) 995-5621
-98.667149,29.719358,"BOERNE, TX",28409 Ih 10 W.,Boerne,TX,78006,
-98.862891,30.267946,MAIN ST/FREDRICK,611 E Main St,Fredericksburg,TX,78624,(830) 997-7600
-98.409283,29.85081,"SPRING BRANCH, T",7765 Highway 281 N,Spring Branch,TX,78070,(830) 228-4422
-98.429194,29.797789,SPRING BR.HWY 46,20615 Sh 46,Spring Branch,TX,78070,(830) 980-8080
-98.266796,29.843947,"8036 FM 2673, CA",8036 Fm 2673,Canyon Lake,TX,78133,(830) 227-5650
-98.162338,29.717801,"NEW BRAUNFELS, H",1761 State Hwy 46 W,New Braunfels,TX,78132,(830) 620-1112
-98.124908,29.685171,NEW BRAUNFELS,1035 Interstate 35 N,New Braunfels,TX,78130,(830) 620-1336
-98.081599,29.732459,HWY 306 & COMMON,304 Fm 306,New Braunfels,TX,78130,(830) 643-0036
-98.094193,29.701118,NEW BRAUNFELS 35,1201 N Interstate 35,New Braunfels,TX,78130,(830) 620-0008
-97.987476,29.827162,"SAN MARCOS, CENT",4060 S Interstate 35,San Marcos,TX,78666,(512) 392-2772
-97.961442,29.864679,WONDER WORLD,185 Wonder World Dr.,San Marcos,TX,78666,
-98.084054,30.192014,DRIPPING SPRINGS,333 E Highway 290,Dripping Springs,TX,78620,(512) 858-9920
-97.938288,29.867898,SAN MARCOS #2,1001 Hwy 123,San Marcos,TX,78666,(512) 353-5110
-97.922508,29.884198,SAN MARCOS # 1,1105 I 35 N,San Marcos,TX,78667,(512) 353-5033
-97.668282,29.869516,LOCKHART,1330 S Colorado,Lockhart,TX,78644,(512) 376-7275
-97.686982,30.034962,MUSTANG RIDGE,10700 Hwy 183 South,Mustang Ridge,TX,78610,(512) 398-9499
-97.862736,30.011265,KYLE,5325 Kyle Center Drive,Kyle,TX,78640,(512) 268-1121
-97.817298,30.08909,BUDA,15359 I 35,Buda,TX,78610,(512) 312-2383
-97.876621,30.096398,BUDA   FM,3265 Rr967,Buda,TX,78610,(737) 292-5007
-97.725514,30.161778,WM CANNON,7101 E. William Cannon Dr. Building 2,Austin,TX,78744,(512) 284-7320
-97.79056,30.165041,(WM) I-35 AT SLA,9300 S I-35 (Walmart),Austin,TX,78748,(512) 291-9397
-97.826591,30.174307,AUSTIN/SLAUGHTER,2114 New Slaughter,Austin,TX,78748-5981,(512) 282-9581
-97.768758,30.191227,WM/CANNON/I35,6503 I 35 S,Austin,TX,78701,(512) 448-4484
-97.786286,30.196994,AUSTIN WILLIAM C,500 W William Cannon Dr,Austin,TX,78704,(512) 443-8443
-97.525998,30.175705,HWY 71 AT TUCKER,2850 Highway 71 West,Cedar Creek,TX,78612,(512) 247-9993
-97.734332,30.214501,BEN WHITE,4501 E Ben White Blvd,Austin,TX,78714,(512) 912-7511
-97.754093,30.221048,(WM) I-35 AT HWY,710 E BEN WHITE (Walmart),Austin,TX,78704,(512) 707-6838
-97.762868,30.223619,AUSTIN CONGRESS,3909 S Congress Ave,Austin,TX,78704,(512) 448-9485
-97.724067,30.235731,AUSTN-RIVERSIDE,2426 E Riverside,Austin,TX,78741-3035,(512) 444-9229
-97.752039,30.237517,AUSTIN-OLTORF,303 E Oltorf St,Austin,TX,78704-5532,(512) 442-7717
-97.823183,30.232133,WALMART-AUSTIN,5017 HWY 290 W (Walmart),Austin,TX,78735,(512) 892-8780
-97.875813,30.235249,AUSTIN-OAK HILL,7010 Hwy 71 W,Austin,TX,78746-8331,(512) 288-0805
-97.696916,30.272319,AUSTIN OAK,1143 1 2 Airport Blvd,Austin,TX,78721,(512) 926-1234
-97.334414,30.10628,BASTROP-HWY 71,496 Hwy 71 W,Bastrop,TX,78602-3723,(512) 321-1591
-97.79864,30.273769,WESTLKE/BEE CAVE,3300 Bee Caves Rd,West Lake Hills,TX,78746,(512) 327-9480
-97.707297,30.313138,AUSTIN-INTERGNL,5355 N Interregional Hwy,Austin,TX,78723,(512) 452-7473
-97.728334,30.323731,AUSTIN/LAMAR,5516 N Lamar,Austin,TX,78751,(512) 467-0320
-97.660598,30.329107,290 & TUSCANY,8500 E Hwy 290,Austin,TX,78724-2415,(512) 933-1907
